name,gppd_idnr,capacity_mw,latitude,longitude,primary_fuel,other_fuel1,other_fuel2,other_fuel3,country,country_long,owner,commissioning_year,source,url,generation_gwh_2013,generation_gwh_2014,generation_gwh_2015,generation_gwh_2016,generation_gwh_2017,generation_gwh_2018,generation_gwh_2019,estimated_generation_gwh_2013,estimated_generation_gwh_2014,estimated_generation_gwh_2015,estimated_generation_gwh_2016,estimated_generation_gwh_2017,generation_gwh_latest
14 Tullywiggan Road,GBR0005673,1.0,54.6221,-6.7398,biomass,,,,GBR,United Kingdom,PAR Renewables,,UK Renewable Energy Planning Database,https://www.gov.uk/government/collections/renewable-energy-planning-data,,,,,,,,,,,,,
289 Finvoy Road,GBR0004884,5.9,54.9638,-6.493,solar,,,,GBR,United Kingdom,Lightsource Renewable Energy,,UK Renewable Energy Planning Database,https://www.gov.uk/government/collections/renewable-energy-planning-data,,,,,,,,8.85,8.83,8.88,8.88,8.95,
30 Acres,GBR0005396,4.965,53.2062,-1.1968,solar,,,,GBR,United Kingdom,Navitas Project,,UK Renewable Energy Planning Database,https://www.gov.uk/government/collections/renewable-energy-planning-data,,,,,,,,7.09,7.55,7.59,7.61,7.69,
A C Shropshire (Farm AD),GBR0000233,2.5,52.586,-1.2375,biomass,,,,GBR,United Kingdom,PROjEN,,UK Renewable Energy Planning Database,https://www.gov.uk/government/collections/renewable-energy-planning-data,,,,,,,,,,,,,
A'Chruach,GBR0004331,42.6,56.1528,-5.3102,wind,,,,GBR,United Kingdom,Infinis (formerly Novera Energy),,UK Renewable Energy Planning Database,https://www.gov.uk/government/collections/renewable-energy-planning-data,,,,,,,,,,,,107.39,
ABP Ellesmere Abbatoir,GBR0006488,1.1,52.8543,-2.8986,biomass,,,,GBR,United Kingdom,ABP Ellesmere,,UK Renewable Energy Planning Database,https://www.gov.uk/government/collections/renewable-energy-planning-data,,,,,,,,,,,,,
AMBLESTON SOLAR PANELS,GBR0001623,6.0,51.8992,-4.8665,solar,,,,GBR,United Kingdom,Arqiva Ltd,,UK Renewable Energy Planning Database,https://www.gov.uk/government/collections/renewable-energy-planning-data,,,,,,,,8.98,9.05,9.04,9.0,9.23,
ANP Newport Wind Turbine,GBR0005555,2.3,51.5559,-2.9738,wind,,,,GBR,United Kingdom,Associated British Ports,,UK Renewable Energy Planning Database,https://www.gov.uk/government/collections/renewable-energy-planning-data,,,,,,,,,,,,5.79,
Abbey Farm,GBR0001737,9.0,52.4193,-0.2366,solar,,,,GBR,United Kingdom,Anesco,,UK Renewable Energy Planning Database,https://www.gov.uk/government/collections/renewable-energy-planning-data,,,,,,,,13.49,13.41,13.61,13.65,13.68,
Abbey Fields Farm,GBR0005394,5.3,51.3187,0.9029,solar,,,,GBR,United Kingdom,FR Solar Kent PV,,UK Renewable Energy Planning Database,https://www.gov.uk/government/collections/renewable-energy-planning-data,,,,,,,,7.92,8.07,8.06,8.06,8.14,
Abbots Ann,GBR0004874,7.0,51.1636,-1.5123,solar,,,,GBR,United Kingdom,British Solar Renewables,,UK Renewable Energy Planning Database,https://www.gov.uk/government/collections/renewable-energy-planning-data,,,,,,,,10.41,10.48,10.48,10.33,10.69,
Abbots Ripton,GBR0001766,24.66717,52.3787,-0.1982,solar,,,,GBR,United Kingdom,Octopus Investment,,UK Renewable Energy Planning Database,https://www.gov.uk/government/collections/renewable-energy-planning-data,,,,,,,,35.46,35.1,35.62,35.72,36.02,
Abbots Ripton Solar Farm (ext.),GBR0004997,3.9,52.3726,-0.1943,solar,,,,GBR,United Kingdom,Rectory Lane Renewables,,UK Renewable Energy Planning Database,https://www.gov.uk/government/collections/renewable-energy-planning-data,,,,,,,,5.76,5.69,5.76,5.77,5.72,
Abbots moor Farm Anaerobic Digester (Farm AD),GBR0000247,1.0,52.839,-2.93,biomass,,,,GBR,United Kingdom,Ms Catherine Suckley,,UK Renewable Energy Planning Database,https://www.gov.uk/government/collections/renewable-energy-planning-data,,,,,,,,,,,,,
Abergelli,GBR0001953,7.68222,51.7007,-3.9476,solar,,,,GBR,United Kingdom,Anesco,,UK Renewable Energy Planning Database,https://www.gov.uk/government/collections/renewable-energy-planning-data,,,,,,,,11.56,11.31,11.35,11.37,11.52,
Aberporth Solar Farm,GBR0005256,1.5,52.1234,-4.5632,solar,,,,GBR,United Kingdom,JBM Solutions,,UK Renewable Energy Planning Database,https://www.gov.uk/government/collections/renewable-energy-planning-data,,,,,,,,2.13,2.17,2.13,2.14,2.17,
Aberthaw B,GBR1000374,1586.0,51.3873,-3.4049,coal,,,,GBR,United Kingdom,RWE Npower Plc,,Department for Business Energy & Industrial Strategy,https://www.gov.uk/government/collections/digest-of-uk-energy-statistics-dukes,,,,,,,,,,,,2409.11,
Aberthaw GT,GBR1000375,51.0,51.3875,-3.4068,gas,,,,GBR,United Kingdom,RWE Npower Plc,,Department for Business Energy & Industrial Strategy,https://www.gov.uk/government/collections/digest-of-uk-energy-statistics-dukes,,,,,,,,,,,,236.64,
Aberthaw Power Station Biomass,GBR0000001,35.0,51.3875,-3.4066,biomass,,,,GBR,United Kingdom,RWE npower,,UK Renewable Energy Planning Database,https://www.gov.uk/government/collections/renewable-energy-planning-data,,,,,,,,,,,,,
Abhainn Gleann Nam Fiadh,GBR0000498,2.0,56.7839,-4.7711,hydro,,,,GBR,United Kingdom,Green Highland Renewables,,UK Renewable Energy Planning Database,https://www.gov.uk/government/collections/renewable-energy-planning-data,,,,,,,,6.54,5.17,7.13,5.6,5.58,
Achairn,GBR0003285,6.2,58.4385,-3.2015,wind,,,,GBR,United Kingdom,James and Ronald Innes,,UK Renewable Energy Planning Database,https://www.gov.uk/government/collections/renewable-energy-planning-data,,,,,,,,,,,,15.62,
Achanalt,GBR0000468,3.0,57.6108,-4.916,hydro,,,,GBR,United Kingdom,Scottish and Southern Energy (SSE),,UK Renewable Energy Planning Database,https://www.gov.uk/government/collections/renewable-energy-planning-data,,,,,,,,12.27,9.41,15.11,10.68,11.03,
Achany,GBR0003205,38.0,58.0019,-4.5,wind,,,,GBR,United Kingdom,Scottish and Southern Energy (SSE),,UK Renewable Energy Planning Database,https://www.gov.uk/government/collections/renewable-energy-planning-data,,,,,,,,,,,,95.79,
Acharn Forest Killin Biomass Plant,GBR2001109,5.6,56.4529,-4.3342,biomass,,,,GBR,United Kingdom,Northern Energy Developments,,UK Renewable Energy Planning Database,https://www.gov.uk/government/collections/renewable-energy-planning-data,,,,,,,,,,,,,
Achlachan Wind Farm,GBR2001060,10.0,58.4489,-3.4546,wind,,,,GBR,United Kingdom,Whirlwind Renewables,,UK Renewable Energy Planning Database,https://www.gov.uk/government/collections/renewable-energy-planning-data,,,,,,,,,,,,25.2,
Advanced Manufacturing Research Centre,GBR0003028,2.6,53.3876,-1.3779,wind,,,,GBR,United Kingdom,,,UK Renewable Energy Planning Database,https://www.gov.uk/government/collections/renewable-energy-planning-data,,,,,,,,,,,,6.55,
Afton Wind Farm,GBR2001058,50.0,55.3116,-4.1743,wind,,,,GBR,United Kingdom,InfraRed Capital Partners/ E.on,,UK Renewable Energy Planning Database,https://www.gov.uk/government/collections/renewable-energy-planning-data,,,,,,,,,,,,126.04,
Agricultural Land at Trecastle,GBR0005150,4.0,51.5238,-3.4252,solar,,,,GBR,United Kingdom,Suncredit UK/ Vogt solar,,UK Renewable Energy Planning Database,https://www.gov.uk/government/collections/renewable-energy-planning-data,,,,,,,,5.89,5.86,5.87,5.93,5.88,
Aigas,GBR0000398,20.0,57.4574,-4.5453,hydro,,,,GBR,United Kingdom,Scottish and Southern Energy (SSE),,UK Renewable Energy Planning Database,https://www.gov.uk/government/collections/renewable-energy-planning-data,,,,,,,,69.75,53.33,96.63,64.19,64.02,
Aikengall,GBR0004526,48.0,55.9172,-2.4901,wind,,,,GBR,United Kingdom,Community Wind Power (01928 734544),,UK Renewable Energy Planning Database,https://www.gov.uk/government/collections/renewable-energy-planning-data,,,,,,,,,,,,121.0,
Aikengall II  Wester Dod Community Wind Farm,GBR0004332,60.8,55.9172,-2.4901,wind,,,,GBR,United Kingdom,Community Windpower,,UK Renewable Energy Planning Database,https://www.gov.uk/government/collections/renewable-energy-planning-data,,,,,,,,,,,,153.27,
Airfield Farm (Podington) (Resubmission),GBR0004116,8.6,52.2363,-0.6089,wind,,,,GBR,United Kingdom,Airvolution Energy,,UK Renewable Energy Planning Database,https://www.gov.uk/government/collections/renewable-energy-planning-data,,,,,,,,,,,,21.68,
Airfield Farm PV,GBR0001550,5.0,52.4746,0.9501,solar,,,,GBR,United Kingdom,P V Farms 01,,UK Renewable Energy Planning Database,https://www.gov.uk/government/collections/renewable-energy-planning-data,,,,,,,,7.64,7.59,7.48,7.5,7.6,
Airies Farm,GBR0004462,35.0,54.8021,-4.6577,wind,,,,GBR,United Kingdom,NTR,,UK Renewable Energy Planning Database,https://www.gov.uk/government/collections/renewable-energy-planning-data,,,,,,,,,,,,88.23,
Airport Road West,GBR2001107,1.2,54.626,-5.8729,biomass,,,,GBR,United Kingdom,Belfast Harbour Commissioners,,UK Renewable Energy Planning Database,https://www.gov.uk/government/collections/renewable-energy-planning-data,,,,,,,,,,,,,
Alan Bartlett & Sons Solar,GBR0001085,1.2,52.4511,0.0379,solar,,,,GBR,United Kingdom,Alan Bartlett & Sons,,UK Renewable Energy Planning Database,https://www.gov.uk/government/collections/renewable-energy-planning-data,,,,,,,,1.67,1.72,1.69,1.69,1.69,
Albrighton Solar farm,GBR0005506,15.8,52.6395,-2.2507,solar,,,,GBR,United Kingdom,Big 60 Million,,UK Renewable Energy Planning Database,https://www.gov.uk/government/collections/renewable-energy-planning-data,,,,,,,,22.91,24.13,23.98,23.93,24.66,
Albury Landfill,GBR0000767,1.5,51.2242,-0.4906,waste,,,,GBR,United Kingdom,SITA UK,,UK Renewable Energy Planning Database,https://www.gov.uk/government/collections/renewable-energy-planning-data,,,,,,,,,,,,1.45,
Aldi - Cardiff,GBR0006486,1.5,51.5002,-3.1181,solar,,,,GBR,United Kingdom,Aldi,,UK Renewable Energy Planning Database,https://www.gov.uk/government/collections/renewable-energy-planning-data,,,,,,,,2.14,2.17,2.13,2.14,2.14,
Aldi Distribution Centre,GBR0005012,1.3,55.8787,-3.6482,solar,,,,GBR,United Kingdom,Aldi,,UK Renewable Energy Planning Database,https://www.gov.uk/government/collections/renewable-energy-planning-data,,,,,,,,1.89,1.72,1.76,1.73,1.67,
Aldi Distribution Centre - Darlington,GBR0001278,1.2,54.5485,-1.5739,solar,,,,GBR,United Kingdom,Aldi,,UK Renewable Energy Planning Database,https://www.gov.uk/government/collections/renewable-energy-planning-data,,,,,,,,1.54,1.66,1.6,1.61,1.6,
Aldi Distribution Centre - Neston,GBR0001390,1.2,53.2894,-3.0322,solar,,,,GBR,United Kingdom,Aldi,,UK Renewable Energy Planning Database,https://www.gov.uk/government/collections/renewable-energy-planning-data,,,,,,,,1.61,1.69,1.68,1.7,1.69,
Aller Court Farm Solar Park,GBR0001646,5.0,51.0576,-2.8652,solar,,,,GBR,United Kingdom,NESF (formerly British Solar Renewables),,UK Renewable Energy Planning Database,https://www.gov.uk/government/collections/renewable-energy-planning-data,,,,,,,,7.47,7.52,7.46,7.51,7.73,
Allerton Waste Recovery Park (EfW),GBR2001017,27.0,54.0326,-1.3805,waste,,,,GBR,United Kingdom,AmeyCespa,,UK Renewable Energy Planning Database,https://www.gov.uk/government/collections/renewable-energy-planning-data,,,,,,,,,,,,26.14,
Allerton Waste Recovery Park (Waste AD),GBR2001011,1.1,54.0326,-1.3805,biomass,,,,GBR,United Kingdom,AmeyCespa,,UK Renewable Energy Planning Database,https://www.gov.uk/government/collections/renewable-energy-planning-data,,,,,,,,,,,,,
Allington EFW,GBR0000886,51.0,51.2865,0.4904,waste,,,,GBR,United Kingdom,Kent Enviropower (FCC Environment),,UK Renewable Energy Planning Database,https://www.gov.uk/government/collections/renewable-energy-planning-data,,,,,,,,,,,,49.39,
Allt Cheanna Mhuir Hydro,GBR0000502,1.3,56.9748,-5.12,hydro,,,,GBR,United Kingdom,Green Highland Renewables,,UK Renewable Energy Planning Database,https://www.gov.uk/government/collections/renewable-energy-planning-data,,,,,,,,3.76,2.87,4.14,3.14,3.13,
Allt Dearg Wind Farmers LLP,GBR0003758,10.8,55.9334,-5.4774,wind,,,,GBR,United Kingdom,Ormsary and Stronachullin Estates (Allt Dearg Wind Farmers LLP),,UK Renewable Energy Planning Database,https://www.gov.uk/government/collections/renewable-energy-planning-data,,,,,,,,,,,,27.22,
Allt Fionn - resubmission,GBR0000473,2.1,56.3492,-4.7007,hydro,,,,GBR,United Kingdom,Osspower Ltd,,UK Renewable Energy Planning Database,https://www.gov.uk/government/collections/renewable-energy-planning-data,,,,,,,,9.62,7.44,11.12,8.41,8.46,
Allt Garbh hydro,GBR0000454,1.5,57.2559,-5.0186,hydro,,,,GBR,United Kingdom,Green Highland Renewables (on behalf of Highland Hydro Services),,UK Renewable Energy Planning Database,https://www.gov.uk/government/collections/renewable-energy-planning-data,,,,,,,,4.08,2.58,4.65,3.37,3.36,
Allt Ladaidh Hydro,GBR0000488,1.3,57.0604,-4.9225,hydro,,,,GBR,United Kingdom,Green Highland Renewables,,UK Renewable Energy Planning Database,https://www.gov.uk/government/collections/renewable-energy-planning-data,,,,,,,,5.69,4.53,7.08,5.21,5.28,
Alltwalis,GBR1000485,23.0,51.8555,-4.3053,wind,,,,GBR,United Kingdom,Statkraft Wind UK Ltd,,Department for Business Energy & Industrial Strategy,https://www.gov.uk/government/collections/digest-of-uk-energy-statistics-dukes,,,,,,,,,,,,57.98,
Alscot,GBR0006492,1.6,52.175,-1.679,biomass,,,,GBR,United Kingdom,RCMA Stratford,,UK Renewable Energy Planning Database,https://www.gov.uk/government/collections/renewable-energy-planning-data,,,,,,,,,,,,,
Altahullion,GBR0003244,26.0,54.9702,-6.9996,wind,,,,GBR,United Kingdom,B9 Energy / RES,,UK Renewable Energy Planning Database,https://www.gov.uk/government/collections/renewable-energy-planning-data,,,,,,,,,,,,65.54,
Altahullion Extension,GBR0003575,11.7,54.9626,-7.0341,wind,,,,GBR,United Kingdom,Renewable Energy Systems (RES) / BP Energy,,UK Renewable Energy Planning Database,https://www.gov.uk/government/collections/renewable-energy-planning-data,,,,,,,,,,,,29.49,
Altamuskin,GBR0004139,7.1,54.5222,-7.0946,wind,,,,GBR,United Kingdom,Altamuskin Windfarm (Energia),,UK Renewable Energy Planning Database,https://www.gov.uk/government/collections/renewable-energy-planning-data,,,,,,,,,,,,17.89,
Altamuskin Extension,GBR0004557,7.1,54.5128,-7.1113,wind,,,,GBR,United Kingdom,Altamuskin Windfarm (Energia),,UK Renewable Energy Planning Database,https://www.gov.uk/government/collections/renewable-energy-planning-data,,,,,,,,,,,,17.89,
Altaveedan Wind Farm,GBR0003850,17.9,55.0847,-6.2578,wind,,,,GBR,United Kingdom,NTR PLC,,UK Renewable Energy Planning Database,https://www.gov.uk/government/collections/renewable-energy-planning-data,,,,,,,,,,,,45.12,
Alveston Wind Park,GBR0004335,6.9,51.5723,-2.4999,wind,,,,GBR,United Kingdom,Ecotricity,,UK Renewable Energy Planning Database,https://www.gov.uk/government/collections/renewable-energy-planning-data,,,,,,,,,,,,17.39,
Amcor Flexibles,GBR0005312,1.7,51.5224,-2.5266,solar,,,,GBR,United Kingdom,Langley Eco,,UK Renewable Energy Planning Database,https://www.gov.uk/government/collections/renewable-energy-planning-data,,,,,,,,2.35,2.36,2.36,2.36,2.36,
An Suidhe,GBR0003298,19.3,56.2187,-5.2194,wind,,,,GBR,United Kingdom,RWE npower,,UK Renewable Energy Planning Database,https://www.gov.uk/government/collections/renewable-energy-planning-data,,,,,,,,,,,,48.65,
Andershaw,GBR0004110,36.3,55.5093,-3.8463,wind,,,,GBR,United Kingdom,Statkraft UK,,UK Renewable Energy Planning Database,https://www.gov.uk/government/collections/renewable-energy-planning-data,,,,,,,,,,,,91.51,
Andover Solar Farm,GBR0001570,5.0,51.2112,-1.5364,solar,,,,GBR,United Kingdom,The Clark Trustees,,UK Renewable Energy Planning Database,https://www.gov.uk/government/collections/renewable-energy-planning-data,,,,,,,,7.57,7.55,7.48,7.48,7.75,
Anthony Estate Solar Farm - resubmission,GBR0001954,4.7,50.3502,-4.2498,solar,,,,GBR,United Kingdom,St Antony 101 PV Park,,UK Renewable Energy Planning Database,https://www.gov.uk/government/collections/renewable-energy-planning-data,,,,,,,,7.49,7.56,7.52,7.52,7.52,
Arden Quarry Landfill,GBR0000783,3.1,53.3718,-1.9681,waste,,,,GBR,United Kingdom,Natural Power,,UK Renewable Energy Planning Database,https://www.gov.uk/government/collections/renewable-energy-planning-data,,,,,,,,,,,,3.0,
Ardley EfW,GBR0000962,26.0,51.8813,-1.2304,waste,,,,GBR,United Kingdom,Viridor,,UK Renewable Energy Planning Database,https://www.gov.uk/government/collections/renewable-energy-planning-data,,,,,,,,,,,,25.18,
Ardley Fields Farm Landfill Site,GBR0000587,1.8,51.9433,-1.2086,waste,,,,GBR,United Kingdom,Haul Waste Limited,,UK Renewable Energy Planning Database,https://www.gov.uk/government/collections/renewable-energy-planning-data,,,,,,,,,,,,1.74,
Ardoch and Over Enoch Wind Farm (Ardoch),GBR0003925,7.2,55.72,-4.2537,wind,,,,GBR,United Kingdom,2020 Renewables/ NTR,,UK Renewable Energy Planning Database,https://www.gov.uk/government/collections/renewable-energy-planning-data,,,,,,,,,,,,18.15,
Ardoch and Over Enoch Wind Farm (Over Enoch),GBR0003855,4.3,55.7102,-4.2521,wind,,,,GBR,United Kingdom,2020 Renewables/ NTR,,UK Renewable Energy Planning Database,https://www.gov.uk/government/collections/renewable-energy-planning-data,,,,,,,,,,,,10.84,
Ardrossan,GBR0003117,24.0,55.6439,-4.8061,wind,,,,GBR,United Kingdom,Airtricity,,UK Renewable Energy Planning Database,https://www.gov.uk/government/collections/renewable-energy-planning-data,,,,,,,,,,,,60.5,
Ardrossan Extension,GBR0004668,6.0,55.6439,-4.8061,wind,,,,GBR,United Kingdom,Airtricity,,UK Renewable Energy Planning Database,https://www.gov.uk/government/collections/renewable-energy-planning-data,,,,,,,,,,,,15.12,
Ardtalnaig Hydro Scheme (resubmission),GBR0000476,2.0,56.5256,-4.1335,hydro,,,,GBR,United Kingdom,Achomer Energy,,UK Renewable Energy Planning Database,https://www.gov.uk/government/collections/renewable-energy-planning-data,,,,,,,,6.54,5.17,7.13,5.6,5.58,
Ardtornish Estate-Upgrade to existing,GBR0000482,1.5,56.5583,-5.6873,hydro,,,,GBR,United Kingdom,Ardtornish Estate,,UK Renewable Energy Planning Database,https://www.gov.uk/government/collections/renewable-energy-planning-data,,,,,,,,6.21,4.74,7.7,5.43,5.41,
Ardwick Railway Goods Yard Incinerator (Newhaven EFW Plant),GBR0000897,33.5,53.474,-2.2079,waste,,,,GBR,United Kingdom,Associated Energy Projects plc,,UK Renewable Energy Planning Database,https://www.gov.uk/government/collections/renewable-energy-planning-data,,,,,,,,,,,,32.44,
Arecleoch,GBR0003258,120.0,55.0688,-4.7971,wind,,,,GBR,United Kingdom,Scottish Power Renewables,,UK Renewable Energy Planning Database,https://www.gov.uk/government/collections/renewable-energy-planning-data,,,,,,,,,,,,302.51,
Ark Hill,GBR0004062,6.4,56.5709,-3.0481,wind,,,,GBR,United Kingdom,Green Cat Renewables / Strathmore Estates,,UK Renewable Energy Planning Database,https://www.gov.uk/government/collections/renewable-energy-planning-data,,,,,,,,,,,,16.13,
Arkwright Solar Farm,GBR0002107,8.0,53.2479,-1.3464,solar,,,,GBR,United Kingdom,Conergy,,UK Renewable Energy Planning Database,https://www.gov.uk/government/collections/renewable-energy-planning-data,,,,,,,,11.3,12.04,12.09,12.08,12.27,
Arla Dairy Site,GBR0004906,5.0,51.8206,-0.7382,biomass,,,,GBR,United Kingdom,Olleco and Arla Foods,,UK Renewable Energy Planning Database,https://www.gov.uk/government/collections/renewable-energy-planning-data,,,,,,,,,,,,,
Arlesey Landfill Gas (Extension),GBR0000774,2.3,52.003,-0.2703,waste,,,,GBR,United Kingdom,Waste Recycling Group,,UK Renewable Energy Planning Database,https://www.gov.uk/government/collections/renewable-energy-planning-data,,,,,,,,,,,,2.22,
Arlesey Landfill Site,GBR0000664,1.1,52.0017,-0.2767,waste,,,,GBR,United Kingdom,Waste Recycling Group,,UK Renewable Energy Planning Database,https://www.gov.uk/government/collections/renewable-energy-planning-data,,,,,,,,,,,,1.06,
Armistead Wind Farm,GBR0003986,12.0,54.276,-2.6388,wind,,,,GBR,United Kingdom,Banks Renewables,,UK Renewable Energy Planning Database,https://www.gov.uk/government/collections/renewable-energy-planning-data,,,,,,,,,,,,30.25,
Arna Wood Solar,GBR0002263,6.2,54.0223,-2.8228,solar,,,,GBR,United Kingdom,BE Renewables (on behalf of Arna Wood),,UK Renewable Energy Planning Database,https://www.gov.uk/government/collections/renewable-energy-planning-data,,,,,,,,8.82,9.28,9.24,9.32,9.45,
Arnish Moor,GBR0003306,3.9,58.1766,-6.4383,wind,,,,GBR,United Kingdom,Arnish Electric Ltd / Farm Energy,,UK Renewable Energy Planning Database,https://www.gov.uk/government/collections/renewable-energy-planning-data,,,,,,,,,,,,9.83,
Arpley Landfill Scheme 'A',GBR0000547,7.9,53.3718,-2.6432,waste,,,,GBR,United Kingdom,NOVERA,,UK Renewable Energy Planning Database,https://www.gov.uk/government/collections/renewable-energy-planning-data,,,,,,,,,,,,7.65,
Arpley Landfill Scheme 'B',GBR0000549,7.9,53.3718,-2.6432,waste,,,,GBR,United Kingdom,NOVERA,,UK Renewable Energy Planning Database,https://www.gov.uk/government/collections/renewable-energy-planning-data,,,,,,,,,,,,7.65,
Arreton A,WKS0072667,4.0,50.6711,-1.276,solar,,,,GBR,United Kingdom,,,Wiki-Solar,https://www.wiki-solar.org,,,,,,,,5.92,6.03,5.82,5.86,6.02,
Artfield Fell,GBR0004518,19.5,54.9704,-4.7746,wind,,,,GBR,United Kingdom,Scottish and Southern Energy (SSE),,UK Renewable Energy Planning Database,https://www.gov.uk/government/collections/renewable-energy-planning-data,,,,,,,,,,,,49.15,
Asfordby North,WKS0066423,3.8,52.7832,-0.9359,solar,,,,GBR,United Kingdom,,,Wiki-Solar,https://www.wiki-solar.org,,,,,,,,5.43,5.57,5.68,5.69,5.62,
Ashby,GBR0005273,4.954,52.7227,-1.4853,solar,,,,GBR,United Kingdom,Primrose Solar,,UK Renewable Energy Planning Database,https://www.gov.uk/government/collections/renewable-energy-planning-data,,,,,,,,7.21,7.49,7.55,7.54,7.67,
Ashlawn Farm,GBR0002375,6.8,51.2557,-2.9041,solar,,,,GBR,United Kingdom,,,UK Renewable Energy Planning Database,https://www.gov.uk/government/collections/renewable-energy-planning-data,,,,,,,,9.97,9.99,9.98,10.18,10.16,
Askern,GBR0002213,4.9737,53.6208,-1.1602,solar,,,,GBR,United Kingdom,Anesco,,UK Renewable Energy Planning Database,https://www.gov.uk/government/collections/renewable-energy-planning-data,,,,,,,,7.08,7.6,7.49,7.48,7.66,
Aspatria,GBR0002007,19.0,54.778,-3.3241,solar,,,,GBR,United Kingdom,United Photovoltaics,,UK Renewable Energy Planning Database,https://www.gov.uk/government/collections/renewable-energy-planning-data,,,,,,,,26.61,28.39,27.45,27.8,28.75,
Aspatria Creamery,GBR0005516,5.0,54.7581,-3.3309,biomass,,,,GBR,United Kingdom,First Milk Cheese Company,,UK Renewable Energy Planning Database,https://www.gov.uk/government/collections/renewable-energy-planning-data,,,,,,,,,,,,,
Assel Valley,GBR0004645,27.6,55.2265,-4.7787,wind,,,,GBR,United Kingdom,Falck Renewables,,UK Renewable Energy Planning Database,https://www.gov.uk/government/collections/renewable-energy-planning-data,,,,,,,,,,,,69.57,
Astley Solar Farm,GBR0005266,5.0,52.4672,-2.3239,solar,,,,GBR,United Kingdom,Rockfire Capital,,UK Renewable Energy Planning Database,https://www.gov.uk/government/collections/renewable-energy-planning-data,,,,,,,,7.12,7.63,7.57,7.55,7.75,
Aston House Solar Farm,GBR0001955,20.0,52.8817,-1.743,solar,,,,GBR,United Kingdom,Solar century / Magnetar Solar,,UK Renewable Energy Planning Database,https://www.gov.uk/government/collections/renewable-energy-planning-data,,,,,,,,29.24,30.67,30.31,30.26,30.85,
Atherstone,GBR0002278,14.7,52.6131,-1.559,solar,,,,GBR,United Kingdom,Foresight Solar Fund,,UK Renewable Energy Planning Database,https://www.gov.uk/government/collections/renewable-energy-planning-data,,,,,,,,21.66,22.25,22.55,22.35,22.92,
Attlebridge Landfill Site,GBR0000509,1.3,52.6999,1.1776,waste,,,,GBR,United Kingdom,Renewable Power Generation Ltd,,UK Renewable Energy Planning Database,https://www.gov.uk/government/collections/renewable-energy-planning-data,,,,,,,,,,,,1.25,
Auchadaduie Wind Farm,GBR2001055,6.9,55.5447,-5.6602,wind,,,,GBR,United Kingdom,Fyne Futures,,UK Renewable Energy Planning Database,https://www.gov.uk/government/collections/renewable-energy-planning-data,,,,,,,,,,,,17.39,
Auchencarroch Landfill,GBR0000688,2.1,55.9968,-4.5334,waste,,,,GBR,United Kingdom,Auchencarroch Energy Ltd / CLP,,UK Renewable Energy Planning Database,https://www.gov.uk/government/collections/renewable-energy-planning-data,,,,,,,,,,,,2.03,
Auchencarroch Landfill Extension,GBR0000786,2.0,55.9972,-4.5326,waste,,,,GBR,United Kingdom,Auchencarroch Energy Ltd/CLP,,UK Renewable Energy Planning Database,https://www.gov.uk/government/collections/renewable-energy-planning-data,,,,,,,,,,,,1.93,
Auchinderran Wind Farm,GBR0003806,2.4,57.5814,-2.6468,wind,,,,GBR,United Kingdom,Green Cat Renewables,,UK Renewable Energy Planning Database,https://www.gov.uk/government/collections/renewable-energy-planning-data,,,,,,,,,,,,6.05,
Auchinlea Landfill Site,GBR0000716,2.3,55.8096,-3.9004,waste,,,,GBR,United Kingdom,Natural Power,,UK Renewable Energy Planning Database,https://www.gov.uk/government/collections/renewable-energy-planning-data,,,,,,,,,,,,2.22,
Auchrobert Wind Farm,GBR0004337,36.0,55.624,-3.9842,wind,,,,GBR,United Kingdom,Falck Renewables,,UK Renewable Energy Planning Database,https://www.gov.uk/government/collections/renewable-energy-planning-data,,,,,,,,,,,,90.75,
Austrey House Farm,GBR0005668,1.5,52.6438,-1.558,biomass,,,,GBR,United Kingdom,William Corbett Farms,,UK Renewable Energy Planning Database,https://www.gov.uk/government/collections/renewable-energy-planning-data,,,,,,,,,,,,,
Aveley,GBR0000514,1.2,51.504,0.2333,waste,,,,GBR,United Kingdom,Waste Recycling Group,,UK Renewable Energy Planning Database,https://www.gov.uk/government/collections/renewable-energy-planning-data,,,,,,,,,,,,1.16,
Aveley Landfill Scheme,GBR0000510,2.1,51.5039,0.2348,waste,,,,GBR,United Kingdom,Waste Recycling Group,,UK Renewable Energy Planning Database,https://www.gov.uk/government/collections/renewable-energy-planning-data,,,,,,,,,,,,2.03,
Avenue Farm,GBR0001909,7.3,52.5757,1.389,solar,,,,GBR,United Kingdom,Lightsource Renewable Energy,,UK Renewable Energy Planning Database,https://www.gov.uk/government/collections/renewable-energy-planning-data,,,,,,,,10.98,11.03,10.78,10.81,10.93,
Averhill Farm,GBR0005287,5.0,53.1481,-1.387,solar,,,,GBR,United Kingdom,Lightsource Renewable Energy,,UK Renewable Energy Planning Database,https://www.gov.uk/government/collections/renewable-energy-planning-data,,,,,,,,7.14,7.6,7.64,7.64,7.74,
Avondale,GBR0000639,4.0,55.905,-3.945,waste,,,,GBR,United Kingdom,Shanks Avondale,,UK Renewable Energy Planning Database,https://www.gov.uk/government/collections/renewable-energy-planning-data,,,,,,,,,,,,3.87,
Avondale Quarry (Pilot),GBR2001112,2.0,55.9903,-3.6789,biomass,,,,GBR,United Kingdom,Grangemouth Generation Ltd,,UK Renewable Energy Planning Database,https://www.gov.uk/government/collections/renewable-energy-planning-data,,,,,,,,,,,,,
Avonmouth,GBR0000915,6.5,51.5097,-2.6908,biomass,,,,GBR,United Kingdom,Avonmouth Biopower,,UK Renewable Energy Planning Database,https://www.gov.uk/government/collections/renewable-energy-planning-data,,,,,,,,,,,,,
Avonmouth Low Carbon Energy Facility - Phase 2,GBR0001014,6.5,51.5097,-2.6908,biomass,,,,GBR,United Kingdom,Avonmouth Biopower,,UK Renewable Energy Planning Database,https://www.gov.uk/government/collections/renewable-energy-planning-data,,,,,,,,,,,,,
Avonmouth Port,GBR0003194,6.0,51.5166,-2.7027,wind,,,,GBR,United Kingdom,Bristol Port Authority,,UK Renewable Energy Planning Database,https://www.gov.uk/government/collections/renewable-energy-planning-data,,,,,,,,,,,,15.12,
Avonmouth Port - extension,GBR0004159,9.0,51.5029,-2.6988,wind,,,,GBR,United Kingdom,Bristol Port Company,,UK Renewable Energy Planning Database,https://www.gov.uk/government/collections/renewable-energy-planning-data,,,,,,,,,,,,22.68,
Avonmouth Port II,GBR0003927,5.0,51.5383,-2.6739,wind,,,,GBR,United Kingdom,Bristol City Council - Energy Management Unit,,UK Renewable Energy Planning Database,https://www.gov.uk/government/collections/renewable-energy-planning-data,,,,,,,,,,,,12.6,
Avonmouth Wind Power,GBR0003664,8.2,51.5115,-2.6735,wind,,,,GBR,United Kingdom,Wessex Water Engineering Services,,UK Renewable Energy Planning Database,https://www.gov.uk/government/collections/renewable-energy-planning-data,,,,,,,,,,,,20.67,
Awre,WKS0068743,5.0,51.77,-2.447,solar,,,,GBR,United Kingdom,,,Wiki-Solar,https://www.wiki-solar.org,,,,,,,,7.29,7.48,7.65,7.66,7.74,
Ayshford Court Farm,GBR0001569,5.0,50.9319,-3.3459,solar,,,,GBR,United Kingdom,AEE Renewables UK,,UK Renewable Energy Planning Database,https://www.gov.uk/government/collections/renewable-energy-planning-data,,,,,,,,7.47,7.59,7.46,7.49,7.73,
B&Q Swindon DC,GBR0005653,2.5,51.5996,-1.7429,solar,,,,GBR,United Kingdom,Kingfisher Scottish Limited Partnership,,UK Renewable Energy Planning Database,https://www.gov.uk/government/collections/renewable-energy-planning-data,,,,,,,,3.66,3.63,3.64,3.65,3.64,
BAE Samlesbury Aerodrome,GBR0002179,2.0,53.7709,-2.5782,solar,,,,GBR,United Kingdom,British Aerospace Defence Limited,,UK Renewable Energy Planning Database,https://www.gov.uk/government/collections/renewable-energy-planning-data,,,,,,,,2.82,2.87,2.85,2.86,2.91,
BH Energy - Biogas (AD),GBR0000230,2.1,54.6193,-5.7889,biomass,,,,GBR,United Kingdom,Blakiston Houston Estate Company,,UK Renewable Energy Planning Database,https://www.gov.uk/government/collections/renewable-energy-planning-data,,,,,,,,,,,,,
BIOSSENCE SOLAR PARK,GBR0001607,4.5,51.3202,0.4816,solar,,,,GBR,United Kingdom,AGR,,UK Renewable Energy Planning Database,https://www.gov.uk/government/collections/renewable-energy-planning-data,,,,,,,,6.67,6.67,6.68,6.69,6.64,
BMW UK Manufacturing Ltd,GBR0001284,3.0,51.7328,-1.1947,solar,,,,GBR,United Kingdom,Free Green Energy,,UK Renewable Energy Planning Database,https://www.gov.uk/government/collections/renewable-energy-planning-data,,,,,,,,4.49,4.44,4.45,4.49,4.47,
BROWNIELEYS - 3 WIND TURBINES,GBR0004348,7.5,56.8399,-2.3791,wind,,,,GBR,United Kingdom,Brownieleys Renewables/Muirden Energy,,UK Renewable Energy Planning Database,https://www.gov.uk/government/collections/renewable-energy-planning-data,,,,,,,,,,,,18.9,
BV Dairy  (Farm AD),GBR0000214,1.5,51.0112,-2.1828,biomass,,,,GBR,United Kingdom,BV Dairy,,UK Renewable Energy Planning Database,https://www.gov.uk/government/collections/renewable-energy-planning-data,,,,,,,,,,,,,
Babergh Home Solar Scheme,GBR0001893,2.8,52.0486,0.9444,solar,,,,GBR,United Kingdom,Babergh District Council,,UK Renewable Energy Planning Database,https://www.gov.uk/government/collections/renewable-energy-planning-data,,,,,,,,4.12,4.15,4.1,4.18,4.17,
Bad a Cheo Wind Farm,GBR2001076,26.7,58.4205,-3.4292,wind,,,,GBR,United Kingdom,Innogy,,UK Renewable Energy Planning Database,https://www.gov.uk/government/collections/renewable-energy-planning-data,,,,,,,,,,,,67.3,
Badachro hydro scheme - resubmission,GBR0000491,1.5,57.6778,-5.7076,hydro,,,,GBR,United Kingdom,Badachro Hydro Limited,,UK Renewable Energy Planning Database,https://www.gov.uk/government/collections/renewable-energy-planning-data,,,,,,,,6.92,5.17,8.06,6.13,6.13,
Baglan Bay CCGT,GBR1000312,520.0,51.6145,-3.8352,gas,,,,GBR,United Kingdom,MPF Operations Limited,,Department for Business Energy & Industrial Strategy,https://www.gov.uk/government/collections/digest-of-uk-energy-statistics-dukes,,,,,,,,,,,,2412.83,
Baglan Bay OCGT,GBR1000314,32.3,51.5924,-3.7802,gas,,,,GBR,United Kingdom,MPF Operations Limited,,Department for Business Energy & Industrial Strategy,https://www.gov.uk/government/collections/digest-of-uk-energy-statistics-dukes,,,,,,,,,,,,149.87,
Baglan Bay Solar Farm - Phase 1,GBR0002381,5.0,51.6094,-3.8295,solar,,,,GBR,United Kingdom,St. Modwen Developments,,UK Renewable Energy Planning Database,https://www.gov.uk/government/collections/renewable-energy-planning-data,,,,,,,,7.64,7.57,7.48,7.5,7.6,
Bagmoor,GBR0002928,16.0,53.6277,-0.6672,wind,,,,GBR,United Kingdom,Munich Re (previously Wind Prospect),,UK Renewable Energy Planning Database,https://www.gov.uk/government/collections/renewable-energy-planning-data,,,,,,,,,,,,40.33,
Baillie,GBR0004021,52.5,58.5679,-3.677,wind,,,,GBR,United Kingdom,Baillie Windfarm Ltd,,UK Renewable Energy Planning Database,https://www.gov.uk/government/collections/renewable-energy-planning-data,,,,,,,,,,,,132.35,
Bake Farm Solar Park,GBR0004783,4.99928,51.0483,-1.8335,solar,,,,GBR,United Kingdom,British Solar Renewables,,UK Renewable Energy Planning Database,https://www.gov.uk/government/collections/renewable-energy-planning-data,,,,,,,,7.6,7.52,7.48,7.5,7.7,
Bakers Farm (solar),GBR0001957,12.0,50.7644,-0.7931,solar,,,,GBR,United Kingdom,Quercus Renewable Holding 2,,UK Renewable Energy Planning Database,https://www.gov.uk/government/collections/renewable-energy-planning-data,,,,,,,,18.03,18.53,18.35,18.36,18.89,
Balcas Timber Biomass CHP Plant,GBR0000033,2.5,54.3073,-7.6639,biomass,,,,GBR,United Kingdom,Balcas Timber,,UK Renewable Energy Planning Database,https://www.gov.uk/government/collections/renewable-energy-planning-data,,,,,,,,,,,,,
Balderton,GBR0006166,20.3,53.048,-0.8107,biomass,,,,GBR,United Kingdom,SPEP,,UK Renewable Energy Planning Database,https://www.gov.uk/government/collections/renewable-energy-planning-data,,,,,,,,,,,,,
Baldovie,GBR0000874,8.3,56.4867,-2.9028,waste,,,,GBR,United Kingdom,Dundee Energy Recycling,,UK Renewable Energy Planning Database,https://www.gov.uk/government/collections/renewable-energy-planning-data,,,,,,,,,,,,8.03,
Balhearty Solar,GBR0005795,5.0,56.143,-3.712,solar,,,,GBR,United Kingdom,Lark Energy,,UK Renewable Energy Planning Database,https://www.gov.uk/government/collections/renewable-energy-planning-data,,,,,,,,7.59,7.07,7.09,7.0,7.01,
Ballinderry Road Solar Phase 1 (Lisburn),GBR0002236,13.5,54.5181,-6.0994,solar,,,,GBR,United Kingdom,Hadstone Energy/Island Green Power,,UK Renewable Energy Planning Database,https://www.gov.uk/government/collections/renewable-energy-planning-data,,,,,,,,20.35,20.52,20.35,20.68,21.04,
Ballinderry Road Solar Phase 2 (Lisburn),GBR0005331,7.0,54.5132,-6.0883,solar,,,,GBR,United Kingdom,RAD Energy One/ Island Green Power,,UK Renewable Energy Planning Database,https://www.gov.uk/government/collections/renewable-energy-planning-data,,,,,,,,10.36,10.48,10.36,10.56,10.67,
Balls Wood Solar Farm,GBR0001958,8.7,50.3497,-4.037,solar,,,,GBR,United Kingdom,Due South Energy & SunE Project6 Ltd,,UK Renewable Energy Planning Database,https://www.gov.uk/government/collections/renewable-energy-planning-data,,,,,,,,13.25,13.36,13.17,13.4,13.4,
Ballyboley Solar (Carrowdore),GBR0004724,6.0,54.5716,-5.5692,solar,,,,GBR,United Kingdom,Island Green Power,,UK Renewable Energy Planning Database,https://www.gov.uk/government/collections/renewable-energy-planning-data,,,,,,,,9.01,8.84,9.02,8.86,8.99,
Ballygarvey Road,GBR2001108,13.0,54.8839,-6.2536,solar,,,,GBR,United Kingdom,Elgin Energy EsCo,,UK Renewable Energy Planning Database,https://www.gov.uk/government/collections/renewable-energy-planning-data,,,,,,,,19.75,19.76,19.82,19.88,20.16,
Ballylumford B,GBR1000003,540.0,54.845,-5.787,gas,,,,GBR,United Kingdom,AES,,Department for Business Energy & Industrial Strategy,https://www.gov.uk/government/collections/digest-of-uk-energy-statistics-dukes,,,210.957,176.789,,,,,,,,2505.63,176.789
Ballylumford B OCGT,GBR1000004,116.0,54.845,-5.787,gas,,,,GBR,United Kingdom,AES,,Department for Business Energy & Industrial Strategy,https://www.gov.uk/government/collections/digest-of-uk-energy-statistics-dukes,,,,808.166,,,,,,,,538.24,808.166
Ballylumford C,GBR1000001,616.0,54.8428,-5.7853,gas,,,,GBR,United Kingdom,AES,,Department for Business Energy & Industrial Strategy,https://www.gov.uk/government/collections/digest-of-uk-energy-statistics-dukes,,,,,,,,,,,,2858.27,
Ballymena,GBR0002866,4.6,54.8795,-6.2332,wind,,,,GBR,United Kingdom,White Young Green Planning,,UK Renewable Energy Planning Database,https://www.gov.uk/government/collections/renewable-energy-planning-data,,,,,,,,,,,,11.59,
Balmurrie Fell Wind Farm,GBR0004445,9.1,54.8725,-4.5165,wind,,,,GBR,United Kingdom,Scottish Southern Energy,,UK Renewable Energy Planning Database,https://www.gov.uk/government/collections/renewable-energy-planning-data,,,,,,,,,,,,22.94,
Bambers,GBR0002715,4.8,53.3213,0.2384,wind,,,,GBR,United Kingdom,,,UK Renewable Energy Planning Database,https://www.gov.uk/government/collections/renewable-energy-planning-data,,,,,,,,,,,,12.1,
Bambers Farm,GBR0003157,9.6,53.3213,0.2384,wind,,,,GBR,United Kingdom,Ecotricity,,UK Renewable Energy Planning Database,https://www.gov.uk/government/collections/renewable-energy-planning-data,,,,,,,,,,,,24.2,
Bankend Rig,GBR0004055,14.3,55.5783,-4.1342,wind,,,,GBR,United Kingdom,INH Brown,,UK Renewable Energy Planning Database,https://www.gov.uk/government/collections/renewable-energy-planning-data,,,,,,,,,,,,36.04,
Bann Road (Rasharkin),GBR0006506,18.0,54.9592,-6.5147,solar,,,,GBR,United Kingdom,Elgin Energy,,UK Renewable Energy Planning Database,https://www.gov.uk/government/collections/renewable-energy-planning-data,,,,,,,,27.63,27.57,27.74,27.74,28.13,
Bann Road (Tullaghans Road),GBR0005955,25.0,54.9985,-6.4404,solar,,,,GBR,United Kingdom,Greencoat Capital,,UK Renewable Energy Planning Database,https://www.gov.uk/government/collections/renewable-energy-planning-data,,,,,,,,36.31,36.1,36.32,36.34,36.88,
Barkip Anaerobic Digestor (Waste AD),GBR0000266,2.2,55.7181,-4.7186,biomass,,,,GBR,United Kingdom,Scottish and Southern Energy (SSE) / William Tracey,,UK Renewable Energy Planning Database,https://www.gov.uk/government/collections/renewable-energy-planning-data,,,,,,,,,,,,,
Barkip Landfill Site,GBR0000682,1.2,55.7181,-4.7186,waste,,,,GBR,United Kingdom,William Tracey Ltd,,UK Renewable Energy Planning Database,https://www.gov.uk/government/collections/renewable-energy-planning-data,,,,,,,,,,,,1.16,
Barley Wood Farm Lane (Gaston Lane - resubmission),GBR0001474,5.4,51.1147,-0.9782,solar,,,,GBR,United Kingdom,Lightsource Renewable Energy,,UK Renewable Energy Planning Database,https://www.gov.uk/government/collections/renewable-energy-planning-data,,,,,,,,8.05,8.22,8.14,8.16,8.29,
Barling Hall Farm,GBR0000735,2.4,51.5801,0.7928,waste,,,,GBR,United Kingdom,Cory Environmental,,UK Renewable Energy Planning Database,https://www.gov.uk/government/collections/renewable-energy-planning-data,,,,,,,,,,,,2.32,
Barlockhart Moor,GBR0004435,8.2,54.8657,-4.7879,wind,,,,GBR,United Kingdom,West Coast Energy,,UK Renewable Energy Planning Database,https://www.gov.uk/government/collections/renewable-energy-planning-data,,,,,,,,,,,,20.67,
Barmoor,GBR0004163,12.0,55.6373,-2.0251,wind,,,,GBR,United Kingdom,EDF,,UK Renewable Energy Planning Database,https://www.gov.uk/government/collections/renewable-energy-planning-data,,,,,,,,,,,,30.25,
Barn Farm - resubmission,GBR0001959,4.2,51.9392,1.1364,solar,,,,GBR,United Kingdom,Lightsource Renewable Energy,,UK Renewable Energy Planning Database,https://www.gov.uk/government/collections/renewable-energy-planning-data,,,,,,,,6.18,6.16,6.2,6.22,6.22,
Barnby Moor,GBR0001404,4.0,53.3564,-0.9954,solar,,,,GBR,United Kingdom,Lark Energy,,UK Renewable Energy Planning Database,https://www.gov.uk/government/collections/renewable-energy-planning-data,,,,,,,,5.65,5.95,5.91,5.93,5.98,
Barns of Ayre Wind Turbines (2),GBR0003902,1.8,58.9217,-2.7156,wind,,,,GBR,United Kingdom,Ayre Energy/Aquatera Ltd,,UK Renewable Energy Planning Database,https://www.gov.uk/government/collections/renewable-energy-planning-data,,,,,,,,,,,,4.53,
Barnsley 1.5,GBR0006164,9.0,53.568,-1.5146,biomass,,,,GBR,United Kingdom,SPEP,,UK Renewable Energy Planning Database,https://www.gov.uk/government/collections/renewable-energy-planning-data,,,,,,,,,,,,,
Barr Farm Limited,GBR0002178,1.88496,52.6691,-2.1267,solar,,,,GBR,United Kingdom,Lark Energy,,UK Renewable Energy Planning Database,https://www.gov.uk/government/collections/renewable-energy-planning-data,,,,,,,,2.48,2.6,2.62,2.62,2.6,
Barrow,GBR0002546,90.0,53.9915,-3.2983,wind,,,,GBR,United Kingdom,Orsted (formerly Dong Energy),,UK Renewable Energy Planning Database,https://www.gov.uk/government/collections/renewable-energy-planning-data,,,,,,,,,,,,226.88,
Barry,GBR2000125,235.0,51.4089,-3.2301,gas,,,,GBR,United Kingdom,,,,,,,,,,,,,,,,1090.41,
Barton Close Solar Park,GBR0001864,4.61032,51.1539,-4.174,solar,,,,GBR,United Kingdom,British Solar Renewables,,UK Renewable Energy Planning Database,https://www.gov.uk/government/collections/renewable-energy-planning-data,,,,,,,,7.09,7.21,7.13,7.2,7.33,
Barton Solar Farm,GBR0001587,1.2,50.9461,-3.3141,solar,,,,GBR,United Kingdom,Lightsource Renewable Energy,,UK Renewable Energy Planning Database,https://www.gov.uk/government/collections/renewable-energy-planning-data,,,,,,,,1.69,1.74,1.72,1.73,1.75,
Barugh Farm,GBR0001838,5.0,54.1751,-1.4955,solar,,,,GBR,United Kingdom,HB and CH Barker,,UK Renewable Energy Planning Database,https://www.gov.uk/government/collections/renewable-energy-planning-data,,,,,,,,7.07,7.59,7.23,7.24,7.6,
Barvills Solar Farm (resubmission),GBR0005942,5.0,51.4721,0.4234,solar,,,,GBR,United Kingdom,BE Renewables/Barvills Solar Limited,,UK Renewable Energy Planning Database,https://www.gov.uk/government/collections/renewable-energy-planning-data,,,,,,,,7.6,7.59,7.46,7.6,7.75,
Basin Bridge Farm,GBR0005643,5.0,52.5614,-1.4184,solar,,,,GBR,United Kingdom,Sun Farming UK,,UK Renewable Energy Planning Database,https://www.gov.uk/government/collections/renewable-energy-planning-data,,,,,,,,7.22,7.47,7.64,7.64,7.74,
Basingstoke Sewage Treatment Works,GBR0006054,1.2,51.2917,-1.0343,biomass,,,,GBR,United Kingdom,Thames Water Utilities,,UK Renewable Energy Planning Database,https://www.gov.uk/government/collections/renewable-energy-planning-data,,,,,,,,,,,,,
Bassingbourn Solar Farm,GBR0001906,14.4,52.0701,-0.0423,solar,,,,GBR,United Kingdom,Push Energy,,UK Renewable Energy Planning Database,https://www.gov.uk/government/collections/renewable-energy-planning-data,,,,,,,,21.91,21.57,21.55,21.61,22.09,
Batsworthy Cross,GBR0004057,18.45,50.9717,-3.6891,wind,,,,GBR,United Kingdom,Blackrock Real Assets,,UK Renewable Energy Planning Database,https://www.gov.uk/government/collections/renewable-energy-planning-data,,,,,,,,,,,,46.51,
Battens Farm Solar Park,GBR0001476,11.0,51.482,-2.165,solar,,,,GBR,United Kingdom,Battens Farm Solar Park Ltd - James Hartley,,UK Renewable Energy Planning Database,https://www.gov.uk/government/collections/renewable-energy-planning-data,,,,,,,,16.83,16.56,16.68,16.81,16.94,
Battlefield EfW,GBR0000910,8.0,52.7426,-2.7272,waste,,,,GBR,United Kingdom,Veolia,,UK Renewable Energy Planning Database,https://www.gov.uk/government/collections/renewable-energy-planning-data,,,,,,,,,,,,7.74,
Bay Farm,GBR0001961,8.1,52.3163,0.4989,solar,,,,GBR,United Kingdom,NextEnergy Solar Fund (NESF),,UK Renewable Energy Planning Database,https://www.gov.uk/government/collections/renewable-energy-planning-data,,,,,,,,12.24,12.21,12.01,12.05,12.23,
Beacon Hill,GBR0000723,3.0,50.7546,-2.0297,waste,,,,GBR,United Kingdom,Combined Landfill Projects (CLP) / SITA UK,,UK Renewable Energy Planning Database,https://www.gov.uk/government/collections/renewable-energy-planning-data,,,,,,,,,,,,2.9,
Beaford Brook Solar Park,GBR0001346,5.2,50.9217,-4.0387,solar,,,,GBR,United Kingdom,Wessex Solar Energy,,UK Renewable Energy Planning Database,https://www.gov.uk/government/collections/renewable-energy-planning-data,,,,,,,,7.78,7.87,7.88,7.9,8.02,
Bears Down,GBR0003392,9.6,50.4703,-4.9556,wind,,,,GBR,United Kingdom,Natural Power,,UK Renewable Energy Planning Database,https://www.gov.uk/government/collections/renewable-energy-planning-data,,,,,,,,,,,,24.2,
Beatrice,GBR2001031,588.0,58.0882,-2.9502,wind,,,,GBR,United Kingdom,Scottish & Southern Energy (SSE) / Repsol / CIP,,UK Renewable Energy Planning Database,https://www.gov.uk/government/collections/renewable-energy-planning-data,,,,,,,,,,,,1482.32,
Beatrice Demonstrator,GBR0002485,10.0,58.2528,-2.8884,wind,,,,GBR,United Kingdom,Talisman Energy,,UK Renewable Energy Planning Database,https://www.gov.uk/government/collections/renewable-energy-planning-data,,,,,,,,,,,,25.2,
Beck Burn (resubmission),GBR0004544,31.0,55.0107,-3.0263,wind,,,,GBR,United Kingdom,EDF Energy Renewables,,UK Renewable Energy Planning Database,https://www.gov.uk/government/collections/renewable-energy-planning-data,,,,,,,,,,,,78.14,
Beckley Solar Farm,GBR0001252,1.7,50.7618,-1.6798,solar,,,,GBR,United Kingdom,Anesco,,UK Renewable Energy Planning Database,https://www.gov.uk/government/collections/renewable-energy-planning-data,,,,,,,,2.36,2.38,2.4,2.41,2.38,
Beckton Gas Pressure Reduction Station,GBR0000143,19.0,51.5182,0.0885,biomass,,,,GBR,United Kingdom,Icon  EEA Holdings & 2OC consortium,,UK Renewable Energy Planning Database,https://www.gov.uk/government/collections/renewable-energy-planning-data,,,,,,,,,,,,,
Beckton STW Biodiesel Power Plant,GBR0000024,8.0,51.5178,0.0935,biomass,,,,GBR,United Kingdom,Balfor Beaty,,UK Renewable Energy Planning Database,https://www.gov.uk/government/collections/renewable-energy-planning-data,,,,,,,,,,,,,
Beckton STW Enhanced Sludge Digestion,GBR0006182,5.8,51.5256,0.0799,waste,,,,GBR,United Kingdom,Thames Water Utilities,,UK Renewable Energy Planning Database,https://www.gov.uk/government/collections/renewable-energy-planning-data,,,,,,,,,,,,5.61,
Beckton Sewage Treatment Works,GBR0004976,2.2,51.5256,0.0799,wind,,,,GBR,United Kingdom,Thames Water Utilities,,UK Renewable Energy Planning Database,https://www.gov.uk/government/collections/renewable-energy-planning-data,,,,,,,,,,,,5.54,
Bedborough,GBR0002114,4.991,50.8173,-1.9243,solar,,,,GBR,United Kingdom,Solstice Renewables Ltd,,UK Renewable Energy Planning Database,https://www.gov.uk/government/collections/renewable-energy-planning-data,,,,,,,,7.47,7.62,7.59,7.58,7.68,
Beddingham 'B' Landfill Scheme,GBR0000579,7.5,50.849,0.0513,waste,,,,GBR,United Kingdom,Haul Waste Disposal Ltd,,UK Renewable Energy Planning Database,https://www.gov.uk/government/collections/renewable-energy-planning-data,,,,,,,,,,,,7.26,
Beddington EfW,GBR2001015,26.0,51.3805,-0.1472,waste,,,,GBR,United Kingdom,Viridor,,UK Renewable Energy Planning Database,https://www.gov.uk/government/collections/renewable-energy-planning-data,,,,,,,,,,,,25.18,
Beechgrove Farm,GBR0001070,4.0,50.7904,-2.9226,solar,,,,GBR,United Kingdom,AEE Renewables,,UK Renewable Energy Planning Database,https://www.gov.uk/government/collections/renewable-energy-planning-data,,,,,,,,5.86,5.88,5.92,5.95,5.87,
Beeston Weir Hydro Scheme,GBR0000414,1.7,52.9122,-1.2087,hydro,,,,GBR,United Kingdom,H20 Power Limited,,UK Renewable Energy Planning Database,https://www.gov.uk/government/collections/renewable-energy-planning-data,,,,,,,,7.4,6.08,9.01,6.31,6.69,
Beinn Eagagach Hydro,GBR0000453,1.1,56.6439,-3.8218,hydro,,,,GBR,United Kingdom,Edradynate,,UK Renewable Energy Planning Database,https://www.gov.uk/government/collections/renewable-energy-planning-data,,,,,,,,5.37,4.73,6.25,4.87,4.78,
Beinn Ghlas,GBR0003295,8.4,56.3823,-5.2977,wind,,,,GBR,United Kingdom,RWE npower,,UK Renewable Energy Planning Database,https://www.gov.uk/government/collections/renewable-energy-planning-data,,,,,,,,,,,,21.17,
Beinn Tharsuinn,GBR0002991,29.75,57.7882,-4.2482,wind,,,,GBR,United Kingdom,Midefearn Renewables,,UK Renewable Energy Planning Database,https://www.gov.uk/government/collections/renewable-energy-planning-data,,,,,,,,,,,,74.99,
Beinn Tharsuinn Windfarm Project,GBR0004669,29.8,57.8053,-4.329,wind,,,,GBR,United Kingdom,CRE Energy/ Scottish Power,,UK Renewable Energy Planning Database,https://www.gov.uk/government/collections/renewable-energy-planning-data,,,,,,,,,,,,75.12,
Beinn an Tuirc 1,GBR0003292,29.7,55.5732,-5.5874,wind,,,,GBR,United Kingdom,CRE Energy/ Scottish Power,,UK Renewable Energy Planning Database,https://www.gov.uk/government/collections/renewable-energy-planning-data,,,,,,,,,,,,74.87,
Beinn an Tuirc 2,GBR0004525,43.7,55.5732,-5.5874,wind,,,,GBR,United Kingdom,Scottish Power Renewables,,UK Renewable Energy Planning Database,https://www.gov.uk/government/collections/renewable-energy-planning-data,,,,,,,,,,,,110.16,
Beinneun,GBR0003787,85.0,57.0956,-4.9655,wind,,,,GBR,United Kingdom,Octopus Investments/Blue Energy.,,UK Renewable Energy Planning Database,https://www.gov.uk/government/collections/renewable-energy-planning-data,,,,,,,,,,,,214.28,
Beinneun Windfarm Extension,GBR0003619,23.8,57.0956,-4.9655,wind,,,,GBR,United Kingdom,Octopus Investments/Blue Energy.,,UK Renewable Energy Planning Database,https://www.gov.uk/government/collections/renewable-energy-planning-data,,,,,,,,,,,,59.99,
Bellhouse Pit Landfill Scheme,GBR0000505,2.7,51.8753,0.8198,waste,,,,GBR,United Kingdom,Ex Waste Ltd/Combined Landfill Projects Ltd (CLP),,UK Renewable Energy Planning Database,https://www.gov.uk/government/collections/renewable-energy-planning-data,,,,,,,,,,,,2.61,
Bellhouse South,GBR0000736,3.9,51.8643,0.8293,waste,,,,GBR,United Kingdom,Cory Environmental,,UK Renewable Energy Planning Database,https://www.gov.uk/government/collections/renewable-energy-planning-data,,,,,,,,,,,,3.77,
Ben Aketil,GBR0003135,27.6,57.4298,-6.4583,wind,,,,GBR,United Kingdom,RDC Scotland Ltd (Renewable Development Co.),,UK Renewable Energy Planning Database,https://www.gov.uk/government/collections/renewable-energy-planning-data,,,,,,,,,,,,69.57,
Ben Aketil Extension,GBR0003668,2.6,57.4298,-6.4583,wind,,,,GBR,United Kingdom,Ben Aketil Wind Energy Ltd,,UK Renewable Energy Planning Database,https://www.gov.uk/government/collections/renewable-energy-planning-data,,,,,,,,,,,,6.55,
Ben Glas,GBR0000487,1.3,56.3299,-4.7172,hydro,,,,GBR,United Kingdom,Gilkes Energy,,UK Renewable Energy Planning Database,https://www.gov.uk/government/collections/renewable-energy-planning-data,,,,,,,,5.89,4.52,6.8,5.14,5.17,
Benbole,GBR0001035,1.73901,50.5401,-4.7826,solar,,,,GBR,United Kingdom,Mr John Brown,,UK Renewable Energy Planning Database,https://www.gov.uk/government/collections/renewable-energy-planning-data,,,,,,,,2.44,2.51,2.43,2.48,2.49,
Bendealt Wind Farm  Highland,GBR0003296,9.0,57.7055,-4.4267,wind,,,,GBR,United Kingdom,RWE npower,,UK Renewable Energy Planning Database,https://www.gov.uk/government/collections/renewable-energy-planning-data,,,,,,,,,,,,22.68,
Bennett Bank Landfill Site (lfg),GBR0000698,2.2,54.1603,-3.2037,waste,,,,GBR,United Kingdom,Waste Recycling Group,,UK Renewable Energy Planning Database,https://www.gov.uk/government/collections/renewable-energy-planning-data,,,,,,,,,,,,2.13,
Bent Spur Solar Farm,GBR0005723,5.0,53.5331,-2.376,solar,,,,GBR,United Kingdom,Active Renewables,,UK Renewable Energy Planning Database,https://www.gov.uk/government/collections/renewable-energy-planning-data,,,,,,,,7.08,7.64,7.25,7.37,7.75,
Bentham Farm,GBR0002344,8.0,51.6055,-1.8987,solar,,,,GBR,United Kingdom,Hive Energy,,UK Renewable Energy Planning Database,https://www.gov.uk/government/collections/renewable-energy-planning-data,,,,,,,,12.05,11.86,12.04,12.08,12.07,
Bentley Estate,GBR0002132,4.7819,50.9335,0.1108,solar,,,,GBR,United Kingdom,Lightsource Renewable Energy,,UK Renewable Energy Planning Database,https://www.gov.uk/government/collections/renewable-energy-planning-data,,,,,,,,7.84,7.95,7.88,7.96,8.1,
Bentley Estate 2,GBR0001730,4.99608,53.105,-2.4728,solar,,,,GBR,United Kingdom,Bentley Motor Cars Ltd,,UK Renewable Energy Planning Database,https://www.gov.uk/government/collections/renewable-energy-planning-data,,,,,,,,7.08,7.62,7.37,7.4,7.69,
Bentwaters CHP,GBR0000130,4.6,52.1299,1.4303,biomass,,,,GBR,United Kingdom,REG Bio-Power,,UK Renewable Energy Planning Database,https://www.gov.uk/government/collections/renewable-energy-planning-data,,,,,,,,,,,,,
Bentwaters Park,GBR0005755,2.0,52.13,1.4303,biomass,,,,GBR,United Kingdom,Agri-Gen,,UK Renewable Energy Planning Database,https://www.gov.uk/government/collections/renewable-energy-planning-data,,,,,,,,,,,,,
Bentwaters Park (extension),GBR0004970,1.8,52.1253,1.4428,biomass,,,,GBR,United Kingdom,Agri-Gen/Downing,,UK Renewable Energy Planning Database,https://www.gov.uk/government/collections/renewable-energy-planning-data,,,,,,,,,,,,,
Berry Burn,GBR0004261,66.7,57.4466,-3.4754,wind,,,,GBR,United Kingdom,Statkraft,,UK Renewable Energy Planning Database,https://www.gov.uk/government/collections/renewable-energy-planning-data,,,,,,,,,,,,168.14,
Berry Court Farm,GBR2001026,4.2,51.328,-1.1122,solar,,,,GBR,United Kingdom,Green Switch Solutions - SOLD,,UK Renewable Energy Planning Database,https://www.gov.uk/government/collections/renewable-energy-planning-data,,,,,,,,6.21,6.2,6.13,6.14,6.15,
Berry Court Solar Farm - energy storage,GBR2001156,1.0,51.3257,-1.1099,storage,,,,GBR,United Kingdom,Anesco,,UK Renewable Energy Planning Database,https://www.gov.uk/government/collections/renewable-energy-planning-data,,,,,,,,,,,,,
Berthlwyd Farm,GBR0005560,5.0,51.5834,-3.3322,solar,,,,GBR,United Kingdom,Greencoat Capital,,UK Renewable Energy Planning Database,https://www.gov.uk/government/collections/renewable-energy-planning-data,,,,,,,,7.66,7.48,7.57,7.62,7.61,
Berwick solar farm,GBR0001963,8.2,50.856,0.1748,solar,,,,GBR,United Kingdom,Susenco/Low Carbon,,UK Renewable Energy Planning Database,https://www.gov.uk/government/collections/renewable-energy-planning-data,,,,,,,,11.83,12.22,12.1,12.1,12.38,
Bessy Bell 1,GBR0003097,5.0,54.704,-7.4405,wind,,,,GBR,United Kingdom,Colham Energy Ltd  plus Airtricty extrension,,UK Renewable Energy Planning Database,https://www.gov.uk/government/collections/renewable-energy-planning-data,,,,,,,,,,,,12.6,
Bessy Bell 2,GBR0003168,9.0,54.705,-7.4265,wind,,,,GBR,United Kingdom,Bessy Bell Windfarm Omagh xx1 1xx,,UK Renewable Energy Planning Database,https://www.gov.uk/government/collections/renewable-energy-planning-data,,,,,,,,,,,,22.68,
Betton Abbots,GBR0000701,1.3,52.6702,-2.7201,waste,,,,GBR,United Kingdom,SITA UK / Natural Power,,UK Renewable Energy Planning Database,https://www.gov.uk/government/collections/renewable-energy-planning-data,,,,,,,,,,,,1.25,
Betty Hill,GBR0003380,5.0,58.5356,-4.1947,wind,,,,GBR,United Kingdom,North British Windpower Ltd,,UK Renewable Energy Planning Database,https://www.gov.uk/government/collections/renewable-energy-planning-data,,,,,,,,,,,,12.6,
Bewick Drift,GBR0003947,2.3,55.2152,-1.5572,wind,,,,GBR,United Kingdom,Harworth Power on behalf of Thomas Breheny,,UK Renewable Energy Planning Database,https://www.gov.uk/government/collections/renewable-energy-planning-data,,,,,,,,,,,,5.79,
Bhlaraidh (previously Balmacaan),GBR0004640,110.0,57.2191,-4.5819,wind,,,,GBR,United Kingdom,Scottish and Southern Energy (SSE),,UK Renewable Energy Planning Database,https://www.gov.uk/government/collections/renewable-energy-planning-data,,,,,,,,,,,,277.3,
Bicker Fen,GBR0003128,26.0,52.9379,-0.2178,wind,,,,GBR,United Kingdom,Wind Prospect,,UK Renewable Energy Planning Database,https://www.gov.uk/government/collections/renewable-energy-planning-data,,,,,,,,,,,,65.54,
Bidston Moss Landfill Scheme,GBR0000551,2.3,53.4101,-3.0756,waste,,,,GBR,United Kingdom,Bidston Methane Ltd,,UK Renewable Energy Planning Database,https://www.gov.uk/government/collections/renewable-energy-planning-data,,,,,,,,,,,,2.22,
Bidwell Solar Farm - resubmission,GBR0001964,5.0,50.4391,-3.7313,solar,,,,GBR,United Kingdom,Wessex Solar Energy,,UK Renewable Energy Planning Database,https://www.gov.uk/government/collections/renewable-energy-planning-data,,,,,,,,7.46,7.63,7.59,7.59,7.75,
Biglis Farm,GBR0005289,5.0,51.4233,-3.2395,solar,,,,GBR,United Kingdom,Conergy West Sussex,,UK Renewable Energy Planning Database,https://www.gov.uk/government/collections/renewable-energy-planning-data,,,,,,,,7.63,7.48,7.47,7.58,7.61,
Bilbster,GBR0003207,3.9,58.4488,-3.2498,wind,,,,GBR,United Kingdom,Donald Miller,,UK Renewable Energy Planning Database,https://www.gov.uk/government/collections/renewable-energy-planning-data,,,,,,,,,,,,9.83,
Billinge Hill Quarry Landfill Scheme,GBR0000573,1.0,53.5062,-2.7176,waste,,,,GBR,United Kingdom,Bidston Methane Ltd.,,UK Renewable Energy Planning Database,https://www.gov.uk/government/collections/renewable-energy-planning-data,,,,,,,,,,,,0.96,
Bilsham Farm,GBR0001966,14.5,50.8138,-0.6357,solar,,,,GBR,United Kingdom,NextEnergy Solar Fund,,UK Renewable Energy Planning Database,https://www.gov.uk/government/collections/renewable-energy-planning-data,,,,,,,,21.76,22.34,22.1,22.16,22.8,
Bilsthorpe,GBR0002378,5.7408,53.142,-1.0252,solar,,,,GBR,United Kingdom,Anesco,,UK Renewable Energy Planning Database,https://www.gov.uk/government/collections/renewable-energy-planning-data,,,,,,,,8.31,8.65,8.7,8.72,8.8,
Bilsthorpe (Land off Forest Lane),GBR0005742,5.0,53.1271,-1.042,solar,,,,GBR,United Kingdom,NESF (formerly Lark Energy),,UK Renewable Energy Planning Database,https://www.gov.uk/government/collections/renewable-energy-planning-data,,,,,,,,7.3,7.6,7.64,7.67,7.73,
Bin Mountain Wind Farm,GBR0003113,9.0,54.6414,-7.6054,wind,,,,GBR,United Kingdom,Greencoat UK Wind,,UK Renewable Energy Planning Database,https://www.gov.uk/government/collections/renewable-energy-planning-data,,,,,,,,,,,,22.68,
Binn Landfill,GBR0000715,1.9,56.3103,-3.3335,waste,,,,GBR,United Kingdom,SITA UK / Natural Power,,UK Renewable Energy Planning Database,https://www.gov.uk/government/collections/renewable-energy-planning-data,,,,,,,,,,,,1.84,
Binsted,GBR0006205,4.9979,50.8338,-0.6061,solar,,,,GBR,United Kingdom,Lightsource,,UK Renewable Energy Planning Database,https://www.gov.uk/government/collections/renewable-energy-planning-data,,,,,,,,7.48,7.61,7.55,7.59,7.75,
Birch Airfield,GBR0002187,5.6,51.837,0.7886,solar,,,,GBR,United Kingdom,Push Energy/ NESF,,UK Renewable Energy Planning Database,https://www.gov.uk/government/collections/renewable-energy-planning-data,,,,,,,,8.5,8.37,8.32,8.34,8.45,
Birkhall Estate,GBR2001125,2.0,57.0045,-3.0814,hydro,,,,GBR,United Kingdom,Balmoral Estates/Cairneyhill,,UK Renewable Energy Planning Database,https://www.gov.uk/government/collections/renewable-energy-planning-data,,,,,,,,6.54,5.17,7.13,5.6,5.58,
Birmingham Bio-Power Plant,GBR0001010,10.3,52.4624,-1.8417,biomass,,,,GBR,United Kingdom,Birmingham Bio-Power,,UK Renewable Energy Planning Database,https://www.gov.uk/government/collections/renewable-energy-planning-data,,,,,,,,,,,,,
Bishop's Waltham Solar Farm,GBR0001325,12.0,50.9443,-1.2081,solar,,,,GBR,United Kingdom,Solafields U/Bishop's Waltham Renewables Ltd,,UK Renewable Energy Planning Database,https://www.gov.uk/government/collections/renewable-energy-planning-data,,,,,,,,18.06,18.53,18.31,18.36,18.77,
Bishops Sutton,GBR0001282,12.0,51.0827,-1.1511,solar,,,,GBR,United Kingdom,Lightsource Renewable Energy,,UK Renewable Energy Planning Database,https://www.gov.uk/government/collections/renewable-energy-planning-data,,,,,,,,18.02,18.54,18.31,18.4,18.77,
Bishopthorpe,GBR0004256,16.4,53.5099,-0.0007,wind,,,,GBR,United Kingdom,Greencoat UK (formerly BayWa r.e.),,UK Renewable Energy Planning Database,https://www.gov.uk/government/collections/renewable-energy-planning-data,,,,,,,,,,,,41.34,
Blaby Solar Farm,GBR0005735,3.5,52.5654,-1.13,solar,,,,GBR,United Kingdom,Blaby Solar Farm,,UK Renewable Energy Planning Database,https://www.gov.uk/government/collections/renewable-energy-planning-data,,,,,,,,5.03,5.14,5.25,5.26,5.21,
Black Bush Farm,GBR0001542,2.7,52.5497,-0.1479,solar,,,,GBR,United Kingdom,Lark Energy,,UK Renewable Energy Planning Database,https://www.gov.uk/government/collections/renewable-energy-planning-data,,,,,,,,3.96,3.93,3.95,3.96,3.94,
Black Dog,GBR0000629,2.2,57.2205,-2.0604,waste,,,,GBR,United Kingdom,FCC Environment,,UK Renewable Energy Planning Database,https://www.gov.uk/government/collections/renewable-energy-planning-data,,,,,,,,,,,,2.13,
Black Hill,GBR0003574,28.6,55.7992,-2.4322,wind,,,,GBR,United Kingdom,Renewable Energy Systems (RES),,UK Renewable Energy Planning Database,https://www.gov.uk/government/collections/renewable-energy-planning-data,,,,,,,,,,,,72.09,
Black Law,GBR0003116,124.2,55.7622,-3.7626,wind,,,,GBR,United Kingdom,Scottish Power Renewables,,UK Renewable Energy Planning Database,https://www.gov.uk/government/collections/renewable-energy-planning-data,,,,,,,,,,,,313.1,
Black Law 2,GBR0004253,55.42,55.7622,-3.7626,wind,,,,GBR,United Kingdom,Scottish Power Renewables,,UK Renewable Energy Planning Database,https://www.gov.uk/government/collections/renewable-energy-planning-data,,,,,,,,,,,,139.71,
Black Law Extension - 1b,GBR0004580,15.0,55.7622,-3.7626,wind,,,,GBR,United Kingdom,Scottish Power Renewables,,UK Renewable Energy Planning Database,https://www.gov.uk/government/collections/renewable-energy-planning-data,,,,,,,,,,,,37.81,
Black Peak Farm,GBR0002219,31.8,52.0782,0.0489,solar,,,,GBR,United Kingdom,Lightsource Renewable Energy,,UK Renewable Energy Planning Database,https://www.gov.uk/government/collections/renewable-energy-planning-data,,,,,,,,46.41,46.12,45.48,45.61,46.7,
Black Rock,GBR0000485,3.5,57.6692,-4.3504,hydro,,,,GBR,United Kingdom,RWE npower,,UK Renewable Energy Planning Database,https://www.gov.uk/government/collections/renewable-energy-planning-data,,,,,,,,9.71,6.21,11.03,8.05,8.03,
Blackawton Solar Farm,GBR0001283,3.0,50.3641,-3.6421,solar,,,,GBR,United Kingdom,Maria Bailey Planning,,UK Renewable Energy Planning Database,https://www.gov.uk/government/collections/renewable-energy-planning-data,,,,,,,,4.51,4.45,4.47,4.51,4.48,
Blackborough End Landfill Site,GBR0000729,1.5,52.7032,0.4732,waste,,,,GBR,United Kingdom,Combined Landfill Projects (CLP),,UK Renewable Energy Planning Database,https://www.gov.uk/government/collections/renewable-energy-planning-data,,,,,,,,,,,,1.45,
Blackburn,GBR1000464,59.0,53.75,-2.4833,gas,,,,GBR,United Kingdom,Scottish Power: Thermal,,Department for Business Energy & Industrial Strategy,https://www.gov.uk/government/collections/digest-of-uk-energy-statistics-dukes,,,,,,,,,,,,273.76,
Blackburn Meadows,GBR0000166,33.0,53.4201,-1.3985,biomass,,,,GBR,United Kingdom,E.On,,UK Renewable Energy Planning Database,https://www.gov.uk/government/collections/renewable-energy-planning-data,,,,,,,,,,,,,
Blackcraig,GBR2001048,53.0,55.1199,-4.0321,wind,,,,GBR,United Kingdom,Blue Energy,,UK Renewable Energy Planning Database,https://www.gov.uk/government/collections/renewable-energy-planning-data,,,,,,,,,,,,133.61,
Blackstone Edge,GBR0003958,7.5,53.5433,-1.7062,wind,,,,GBR,United Kingdom,Ventient (formerly Infinis),,UK Renewable Energy Planning Database,https://www.gov.uk/government/collections/renewable-energy-planning-data,,,,,,,,,,,,18.9,
Blackwell Grange Solar Farm,GBR0001968,5.0,52.0879,-1.6673,solar,,,,GBR,United Kingdom,Blackwell Grange Solar Farm Ltd (Conergy),,UK Renewable Energy Planning Database,https://www.gov.uk/government/collections/renewable-energy-planning-data,,,,,,,,7.25,7.48,7.65,7.65,7.74,
Blaen Bowi Wind Farm,GBR0002630,3.9,51.9971,-4.4413,wind,,,,GBR,United Kingdom,WINDJEN POWER LTD,,UK Renewable Energy Planning Database,https://www.gov.uk/government/collections/renewable-energy-planning-data,,,,,,,,,,,,9.83,
Blaengwen (Re-Submission),GBR0004670,23.0,51.9778,-4.238,wind,,,,GBR,United Kingdom,Statkraft and Catamount Energy Corporation,,UK Renewable Energy Planning Database,https://www.gov.uk/government/collections/renewable-energy-planning-data,,,,,,,,,,,,57.98,
Blakenhall Park Solar Farm,GBR0005148,1.8,52.7604,-1.7443,solar,,,,GBR,United Kingdom,Mercer Farming,,UK Renewable Energy Planning Database,https://www.gov.uk/government/collections/renewable-energy-planning-data,,,,,,,,2.35,2.48,2.46,2.46,2.47,
Blantyre Muir Wind Farm extension,GBR0004240,7.5,55.7416,-4.09,wind,,,,GBR,United Kingdom,West Coast Energy,,UK Renewable Energy Planning Database,https://www.gov.uk/government/collections/renewable-energy-planning-data,,,,,,,,,,,,18.9,
Blatchworthy,GBR0001605,1.41246,51.1461,-4.1377,solar,,,,GBR,United Kingdom,Lightsource Renewable Energy,,UK Renewable Energy Planning Database,https://www.gov.uk/government/collections/renewable-energy-planning-data,,,,,,,,1.99,2.01,2.02,2.02,2.02,
Blazer Fuels,GBR2001116,3.0,53.1213,-3.323,biomass,,,,GBR,United Kingdom,Newbridge Energy,,UK Renewable Energy Planning Database,https://www.gov.uk/government/collections/renewable-energy-planning-data,,,,,,,,,,,,,
Blenches Mill Solar Park,GBR0001969,6.0788,51.2746,-2.1899,solar,,,,GBR,United Kingdom,British Solar Renewables (formerly know as Solar Power Generation),,UK Renewable Energy Planning Database,https://www.gov.uk/government/collections/renewable-energy-planning-data,,,,,,,,9.15,8.95,9.05,9.12,9.11,
Bletchley Phase II,GBR0000536,2.2,51.9791,-0.7653,waste,,,,GBR,United Kingdom,Waste Recycling Group,,UK Renewable Energy Planning Database,https://www.gov.uk/government/collections/renewable-energy-planning-data,,,,,,,,,,,,2.13,
Bloodhills - repowering,GBR0003924,1.0,52.707,1.6644,wind,,,,GBR,United Kingdom,The Farm Energy Partnership LLP,,UK Renewable Energy Planning Database,https://www.gov.uk/government/collections/renewable-energy-planning-data,,,,,,,,,,,,2.52,
Bloxwich Battery,GBR2001201,41.0,52.5901,-2.01,storage,,,,GBR,United Kingdom,Gresham House Energy Storage,,UK Renewable Energy Planning Database,https://www.gov.uk/government/collections/renewable-energy-planning-data,,,,,,,,,,,,,
Blue Gates Farm,GBR0002694,1.5,51.8631,1.0042,wind,,,,GBR,United Kingdom,M H & P Leyland,,UK Renewable Energy Planning Database,https://www.gov.uk/government/collections/renewable-energy-planning-data,,,,,,,,,,,,3.78,
Blue House,GBR0005656,4.98,54.6326,-1.2684,solar,,,,GBR,United Kingdom,Anesco,,UK Renewable Energy Planning Database,https://www.gov.uk/government/collections/renewable-energy-planning-data,,,,,,,,7.11,7.6,7.22,7.37,7.72,
Bluegates Solar Park,GBR0005125,10.5,51.8607,1.005,solar,,,,GBR,United Kingdom,Edgar Middleton,,UK Renewable Energy Planning Database,https://www.gov.uk/government/collections/renewable-energy-planning-data,,,,,,,,16.04,16.23,16.1,16.17,16.52,
Blyth Harbour Wind Farm (re-power),GBR0004663,3.4,55.1205,-1.4906,wind,,,,GBR,United Kingdom,Hainsford Energy (Blyth Harbour) Limited,,UK Renewable Energy Planning Database,https://www.gov.uk/government/collections/renewable-energy-planning-data,,,,,,,,,,,,8.57,
Blyth Offshore Wind Test Site,GBR2001032,41.5,55.167,-1.3644,wind,,,,GBR,United Kingdom,EDF Energy Renewables,,UK Renewable Energy Planning Database,https://www.gov.uk/government/collections/renewable-energy-planning-data,,,,,,,,,,,,104.61,
Blyth T2,GBR0003659,2.0,55.1254,-1.4952,wind,,,,GBR,United Kingdom,Border Wind Farms Ltd,,UK Renewable Energy Planning Database,https://www.gov.uk/government/collections/renewable-energy-planning-data,,,,,,,,,,,,5.04,
Boardinghouse Wind Farm,GBR0004345,10.3,52.5351,0.0606,wind,,,,GBR,United Kingdom,Ecogen,,UK Renewable Energy Planning Database,https://www.gov.uk/government/collections/renewable-energy-planning-data,,,,,,,,,,,,25.96,
Bobbing solar farm,GBR0001970,11.3,51.3581,0.6889,solar,,,,GBR,United Kingdom,Solar Securities (Group),,UK Renewable Energy Planning Database,https://www.gov.uk/government/collections/renewable-energy-planning-data,,,,,,,,17.18,17.39,17.21,17.32,17.64,
Bodden,WKS0066604,5.0,19.2905,-81.2453,solar,,,,GBR,United Kingdom,,,Wiki-Solar,https://www.wiki-solar.org,,,,,,,,10.13,10.35,10.35,10.39,10.24,
Boddington Reservoir,GBR0003732,1.5,52.1742,-1.2793,wind,,,,GBR,United Kingdom,,,UK Renewable Energy Planning Database,https://www.gov.uk/government/collections/renewable-energy-planning-data,,,,,,,,,,,,3.78,
Bodmin,GBR0001971,4.97684,50.4835,-4.7335,solar,,,,GBR,United Kingdom,Solar Securities Group,,UK Renewable Energy Planning Database,https://www.gov.uk/government/collections/renewable-energy-planning-data,,,,,,,,7.59,7.85,7.6,7.81,7.94,
Bodorgan Solar Farm,GBR0002104,12.6,53.1787,-4.4148,solar,,,,GBR,United Kingdom,Anesco,,UK Renewable Energy Planning Database,https://www.gov.uk/government/collections/renewable-energy-planning-data,,,,,,,,18.97,19.23,18.94,19.23,19.79,
Bodtegir,GBR0006033,1.5,53.0175,-3.4988,wind,,,,GBR,United Kingdom,Clean Earth Energy,,UK Renewable Energy Planning Database,https://www.gov.uk/government/collections/renewable-energy-planning-data,,,,,,,,,,,,3.78,
Bodwen Solar Park,GBR0001639,5.5,50.4115,-4.7786,solar,,,,GBR,United Kingdom,Greencoat Capital,,UK Renewable Energy Planning Database,https://www.gov.uk/government/collections/renewable-energy-planning-data,,,,,,,,8.35,8.66,8.37,8.62,8.76,
Bogenlea Farm,GBR0004346,2.3,57.5663,-2.2999,wind,,,,GBR,United Kingdom,Eco2,,UK Renewable Energy Planning Database,https://www.gov.uk/government/collections/renewable-energy-planning-data,,,,,,,,,,,,5.79,
Bolsovermoor Quarry,GBR0005404,4.9979,53.2398,-1.2544,solar,,,,GBR,United Kingdom,Lightsource Renewable Energy,,UK Renewable Energy Planning Database,https://www.gov.uk/government/collections/renewable-energy-planning-data,,,,,,,,7.14,7.6,7.64,7.63,7.74,
Bolton EfW,GBR0000898,8.0,53.567,-2.4076,waste,,,,GBR,United Kingdom,Viridor (GMWDA),,UK Renewable Energy Planning Database,https://www.gov.uk/government/collections/renewable-energy-planning-data,,,,,,,,,,,,7.74,
Bolton Road Waste Treatment and Renewable Energy Facility (Waste AD),GBR0000339,4.0,53.508,-1.3157,biomass,,,,GBR,United Kingdom,Shanks Group,,UK Renewable Energy Planning Database,https://www.gov.uk/government/collections/renewable-energy-planning-data,,,,,,,,,,,,,
Bombardier Factory,GBR0001350,3.8,54.6688,-5.9426,solar,,,,GBR,United Kingdom,Bombardier Aerospace,,UK Renewable Energy Planning Database,https://www.gov.uk/government/collections/renewable-energy-planning-data,,,,,,,,5.68,5.61,5.69,5.7,5.62,
Bommertown Solar Farm,GBR0002101,5.0,51.0189,-3.6846,solar,,,,GBR,United Kingdom,Steadfast Molland Solar Ltd,,UK Renewable Energy Planning Database,https://www.gov.uk/government/collections/renewable-energy-planning-data,,,,,,,,7.56,7.62,7.48,7.5,7.7,
Bonerbo Wind Turbines (resubmission),GBR0003370,1.5,56.2594,-2.7467,wind,,,,GBR,United Kingdom,Messrs Stevenson  Watson & Brunton,,UK Renewable Energy Planning Database,https://www.gov.uk/government/collections/renewable-energy-planning-data,,,,,,,,,,,,3.78,
Bonnyrigg,GBR0000747,2.2,55.8865,-3.1255,waste,,,,GBR,United Kingdom,Natural Power,,UK Renewable Energy Planning Database,https://www.gov.uk/government/collections/renewable-energy-planning-data,,,,,,,,,,,,2.13,
Bootham Lane,GBR0000614,1.2,53.5861,-1.0105,waste,,,,GBR,United Kingdom,Waste Recycling Group,,UK Renewable Energy Planning Database,https://www.gov.uk/government/collections/renewable-energy-planning-data,,,,,,,,,,,,1.16,
Bootham Lane Landfill,GBR0000743,2.7,53.5897,-1.0089,waste,,,,GBR,United Kingdom,Natural Power,,UK Renewable Energy Planning Database,https://www.gov.uk/government/collections/renewable-energy-planning-data,,,,,,,,,,,,2.61,
Bootham Lane Phase 2,GBR0000630,1.4,53.5861,-1.0105,waste,,,,GBR,United Kingdom,Waste Recycling Group,,UK Renewable Energy Planning Database,https://www.gov.uk/government/collections/renewable-energy-planning-data,,,,,,,,,,,,1.35,
Boscombe Airfield,GBR0002345,12.3,51.1514,-1.7379,solar,,,,GBR,United Kingdom,Lark Energy,,UK Renewable Energy Planning Database,https://www.gov.uk/government/collections/renewable-energy-planning-data,,,,,,,,18.74,18.77,18.45,18.56,19.25,
Boston Landfill Scheme,GBR0000752,1.3,52.9522,0.005,waste,,,,GBR,United Kingdom,Renewable Power Systems,,UK Renewable Energy Planning Database,https://www.gov.uk/government/collections/renewable-energy-planning-data,,,,,,,,,,,,1.25,
Bottom Plain,GBR0001973,10.0,50.7127,-2.1654,solar,,,,GBR,United Kingdom,Inazin Energy/Low Carbon,,UK Renewable Energy Planning Database,https://www.gov.uk/government/collections/renewable-energy-planning-data,,,,,,,,15.2,15.75,15.26,15.27,16.07,
Boulfruich,GBR0003126,13.0,58.2999,-3.4434,wind,,,,GBR,United Kingdom,Mr and Mrs Hall,,UK Renewable Energy Planning Database,https://www.gov.uk/government/collections/renewable-energy-planning-data,,,,,,,,,,,,32.77,
Boundary Lane,GBR0003674,6.0,54.8478,-1.9282,wind,,,,GBR,United Kingdom,EDF (purchased from Wind Prospect Developments Ltd in 2012),,UK Renewable Energy Planning Database,https://www.gov.uk/government/collections/renewable-energy-planning-data,,,,,,,,,,,,15.12,
Bourne Farm,GBR0006062,2.4,50.7756,-2.3952,solar,,,,GBR,United Kingdom,Farm Power Apollo,,UK Renewable Energy Planning Database,https://www.gov.uk/government/collections/renewable-energy-planning-data,,,,,,,,3.47,3.5,3.51,3.52,3.49,
Bourne Park (Solar),GBR0002361,5.0,50.7779,-2.3943,solar,,,,GBR,United Kingdom,Sovereign Energy Partners LLP - Charles Houston -,,UK Renewable Energy Planning Database,https://www.gov.uk/government/collections/renewable-energy-planning-data,,,,,,,,7.48,7.64,7.6,7.59,7.69,
Bourne Park AD (AD),GBR0000366,1.1,50.7771,-2.3941,biomass,,,,GBR,United Kingdom,Eco Sustainable Solutions,,UK Renewable Energy Planning Database,https://www.gov.uk/government/collections/renewable-energy-planning-data,,,,,,,,,,,,,
Bowbeat (Emly Bank),GBR2000198,15.6,55.7117,-3.1336,wind,,,,GBR,United Kingdom,,,UK DUKES,,,,,,,,,,,,,39.32,
Bowbeat (Roughside),GBR2000199,15.6,55.7117,-3.1336,wind,,,,GBR,United Kingdom,,,,,,,,,,,,,,,,39.32,
Bowden Lane Solar Park,GBR0005428,4.9896,50.9818,-2.4287,solar,,,,GBR,United Kingdom,British Solar Renewables / NextEnergy Solar Fund (NESF),,UK Renewable Energy Planning Database,https://www.gov.uk/government/collections/renewable-energy-planning-data,,,,,,,,7.59,7.61,7.47,7.48,7.68,
Bowerhouse Farm,GBR0001518,8.3,51.345,-2.8611,solar,,,,GBR,United Kingdom,KWTN Solar,,UK Renewable Energy Planning Database,https://www.gov.uk/government/collections/renewable-energy-planning-data,,,,,,,,12.13,12.03,12.13,12.24,12.25,
Bowmore,GBR1000412,6.0,56.1833,-2.5667,oil,,,,GBR,United Kingdom,Scottish and Southern: Island Generation,,Department for Business Energy & Industrial Strategy,https://www.gov.uk/government/collections/digest-of-uk-energy-statistics-dukes,,,,,,,,,,,,3.25,
Boxted Airfield,GBR0002143,18.8,51.9431,0.9296,solar,,,,GBR,United Kingdom,NextEnergy Solar Fund,,UK Renewable Energy Planning Database,https://www.gov.uk/government/collections/renewable-energy-planning-data,,,,,,,,28.8,28.64,28.23,28.31,28.84,
Boyndie,GBR0002691,16.3,57.6607,-2.6518,wind,,,,GBR,United Kingdom,Boyndie Wind Farm,,UK Renewable Energy Planning Database,https://www.gov.uk/government/collections/renewable-energy-planning-data,,,,,,,,,,,,41.09,
Boyndie Airfield,GBR0004671,16.7,57.6653,-2.639,wind,,,,GBR,United Kingdom,RDC Scotland Ltd/ Falck Renewables,,UK Renewable Energy Planning Database,https://www.gov.uk/government/collections/renewable-energy-planning-data,,,,,,,,,,,,42.09,
Brackagh Quarry,GBR0004361,4.98,54.8112,-6.7082,wind,,,,GBR,United Kingdom,Renewable Energy Generation (REG),,UK Renewable Energy Planning Database,https://www.gov.uk/government/collections/renewable-energy-planning-data,,,,,,,,,,,,12.55,
Bradford Solar Park,GBR0001158,5.3,50.7807,-4.4415,solar,,,,GBR,United Kingdom,Wessex Solar Energy,,UK Renewable Energy Planning Database,https://www.gov.uk/government/collections/renewable-energy-planning-data,,,,,,,,8.03,8.07,8.02,8.05,8.23,
Bradgate Quarry Landfill Gas Scheme,GBR0000531,2.5,52.6727,-1.2428,waste,,,,GBR,United Kingdom,Waste Recycling Group,,UK Renewable Energy Planning Database,https://www.gov.uk/government/collections/renewable-energy-planning-data,,,,,,,,,,,,2.42,
Bradwell,GBR0003936,20.5,51.7098,0.821,wind,,,,GBR,United Kingdom,Npower Renewables,,UK Renewable Energy Planning Database,https://www.gov.uk/government/collections/renewable-energy-planning-data,,,,,,,,,,,,51.67,
Braes of Doune Wind Farm,GBR0003119,72.0,56.2698,-4.0589,wind,,,,GBR,United Kingdom,Greencoat UK Wind,,UK Renewable Energy Planning Database,https://www.gov.uk/government/collections/renewable-energy-planning-data,,,,,,,,,,,,181.5,
Braevallich,GBR0000503,2.2,56.2112,-5.2805,hydro,,,,GBR,United Kingdom,INNOGY plc,,UK Renewable Energy Planning Database,https://www.gov.uk/government/collections/renewable-energy-planning-data,,,,,,,,7.18,5.67,7.83,6.14,6.12,
Braich Ddu,GBR0004022,3.9,52.5951,-3.9576,wind,,,,GBR,United Kingdom,REG Windpower (previously Cornwall Light and Power),,UK Renewable Energy Planning Database,https://www.gov.uk/government/collections/renewable-energy-planning-data,,,,,,,,,,,,9.83,
Bransholme Solar CIC,GBR0005214,5.0,53.8085,-0.3158,solar,,,,GBR,United Kingdom,Renesola (community owned),,UK Renewable Energy Planning Database,https://www.gov.uk/government/collections/renewable-energy-planning-data,,,,,,,,7.29,7.47,7.63,7.66,7.71,
Branston solar park,GBR0002323,18.9,53.1813,-0.4736,solar,,,,GBR,United Kingdom,Inazin Energy Limited/Low Carbon,,UK Renewable Energy Planning Database,https://www.gov.uk/government/collections/renewable-energy-planning-data,,,,,,,,27.82,28.41,28.88,28.96,29.37,
Bratton Fleming Solar Farm,GBR0001557,5.0,51.1252,-3.9249,solar,,,,GBR,United Kingdom,Wessex Solar Energy,,UK Renewable Energy Planning Database,https://www.gov.uk/government/collections/renewable-energy-planning-data,,,,,,,,7.48,7.57,7.49,7.51,7.75,
Braydon Manor Farm,GBR0001974,8.7,51.5885,-1.9362,solar,,,,GBR,United Kingdom,Public Power Solutions,,UK Renewable Energy Planning Database,https://www.gov.uk/government/collections/renewable-energy-planning-data,,,,,,,,13.21,12.97,13.16,13.2,13.23,
Brazier Landfill Scheme,GBR0000507,3.9,51.8157,-0.056,waste,,,,GBR,United Kingdom,Pioneer Aggregates (UK) Ltd,,UK Renewable Energy Planning Database,https://www.gov.uk/government/collections/renewable-energy-planning-data,,,,,,,,,,,,3.77,
Brechfa Forest West,GBR2001040,57.4,51.9606,-4.1234,wind,,,,GBR,United Kingdom,RWE Npower Renewables,,UK Renewable Energy Planning Database,https://www.gov.uk/government/collections/renewable-energy-planning-data,,,,,,,,,,,,144.7,
Bredbury Park Way - AD Stockport (Waste AD),GBR0000263,2.0,53.4274,-2.1143,biomass,,,,GBR,United Kingdom,Greater Manchester Waste Ltd,,UK Renewable Energy Planning Database,https://www.gov.uk/government/collections/renewable-energy-planning-data,,,,,,,,,,,,,
Brenig Wind Farm (Resubmission),GBR2001094,37.6,53.109,-3.5031,wind,,,,GBR,United Kingdom,CGNEE,,UK Renewable Energy Planning Database,https://www.gov.uk/government/collections/renewable-energy-planning-data,,,,,,,,,,,,94.78,
Brenkley Landfill,GBR0000704,1.9,55.069,-1.6743,waste,,,,GBR,United Kingdom,SITA UK / Natural Power,,UK Renewable Energy Planning Database,https://www.gov.uk/government/collections/renewable-energy-planning-data,,,,,,,,,,,,1.84,
Bretby Power,GBR0000742,1.6,52.7867,-1.5848,waste,,,,GBR,United Kingdom,Natural Power,,UK Renewable Energy Planning Database,https://www.gov.uk/government/collections/renewable-energy-planning-data,,,,,,,,,,,,1.54,
Briar Solar Farm,GBR0005720,1.9,52.6452,1.2582,solar,,,,GBR,United Kingdom,NR16/ RenEnergy,,UK Renewable Energy Planning Database,https://www.gov.uk/government/collections/renewable-energy-planning-data,,,,,,,,2.62,2.65,2.62,2.63,2.62,
Brickyard Barn (resubmission),GBR0001519,4.1,52.2506,-1.5558,solar,,,,GBR,United Kingdom,Sun Glow Power,,UK Renewable Energy Planning Database,https://www.gov.uk/government/collections/renewable-energy-planning-data,,,,,,,,5.83,5.99,6.12,6.13,6.09,
Brigg Renewable Energy Plant (Re-submission),GBR0000150,40.0,53.5423,-0.5096,biomass,,,,GBR,United Kingdom,Eco2,,UK Renewable Energy Planning Database,https://www.gov.uk/government/collections/renewable-energy-planning-data,,,,,,,,,,,,,
Bristol STW (Waste AD),GBR0000232,10.0,51.5128,-2.67,biomass,,,,GBR,United Kingdom,GENeco,,UK Renewable Energy Planning Database,https://www.gov.uk/government/collections/renewable-energy-planning-data,,,,,,,,,,,,,
British Sugar - Bury,GBR0004877,5.0,52.2543,0.727,biomass,,,,GBR,United Kingdom,British Sugar,,UK Renewable Energy Planning Database,https://www.gov.uk/government/collections/renewable-energy-planning-data,,,,,,,,,,,,,
Briton / Neath,GBR0000605,2.2,51.6431,-3.8325,waste,,,,GBR,United Kingdom,Natural Power,,UK Renewable Energy Planning Database,https://www.gov.uk/government/collections/renewable-energy-planning-data,,,,,,,,,,,,2.13,
Briton Ferry,GBR0000602,2.0,51.6422,-3.831,waste,,,,GBR,United Kingdom,Neath Port Talbot Waste Management Co Ltd,,UK Renewable Energy Planning Database,https://www.gov.uk/government/collections/renewable-energy-planning-data,,,,,,,,,,,,1.93,
Broadgate Solar Farm,GBR0001618,1.1,50.8523,-3.7396,solar,,,,GBR,United Kingdom,Lightsource Renewable Energy,,UK Renewable Energy Planning Database,https://www.gov.uk/government/collections/renewable-energy-planning-data,,,,,,,,1.54,1.59,1.57,1.57,1.6,
Broadley Copse,GBR2001129,2.2,50.8736,-0.8489,biomass,,,,GBR,United Kingdom,Broadley Energy,,UK Renewable Energy Planning Database,https://www.gov.uk/government/collections/renewable-energy-planning-data,,,,,,,,,,,,,
Brockaghboy Wind Farm,GBR0004249,37.5,54.9806,-6.765,wind,,,,GBR,United Kingdom,TCI Renewables/ERG Renew,,UK Renewable Energy Planning Database,https://www.gov.uk/government/collections/renewable-energy-planning-data,,,,,,,,,,,,94.53,
Brockaghboy Wind Farm - extension,GBR0002888,10.0,54.8991,-6.8692,wind,,,,GBR,United Kingdom,TCI Renewables/ERG Renew,,UK Renewable Energy Planning Database,https://www.gov.uk/government/collections/renewable-energy-planning-data,,,,,,,,,,,,25.2,
Brockhampton,WKS0065622,4.2,51.935,-2.0884,solar,,,,GBR,United Kingdom,,,Wiki-Solar,https://www.wiki-solar.org,,,,,,,,5.97,6.13,6.26,6.26,6.21,
Brockholes Wind Cluster,GBR0002672,2.4,55.8666,-2.2879,wind,,,,GBR,United Kingdom,Mr J Prentice  Brockholes Farm,,UK Renewable Energy Planning Database,https://www.gov.uk/government/collections/renewable-energy-planning-data,,,,,,,,,,,,6.05,
Brocklesby - Crosslands Lane,GBR0005722,3.5,53.7782,-0.6639,biomass,,,,GBR,United Kingdom,BioConstruct,,UK Renewable Energy Planning Database,https://www.gov.uk/government/collections/renewable-energy-planning-data,,,,,,,,,,,,,
Brogborough Phase III,GBR0000515,11.0,52.0517,-0.5868,waste,,,,GBR,United Kingdom,Waste Recycling Group,,UK Renewable Energy Planning Database,https://www.gov.uk/government/collections/renewable-energy-planning-data,,,,,,,,,,,,10.65,
Brogborough Phase IV,GBR0000516,11.0,52.0553,-0.5867,waste,,,,GBR,United Kingdom,Waste Recycling Group,,UK Renewable Energy Planning Database,https://www.gov.uk/government/collections/renewable-energy-planning-data,,,,,,,,,,,,10.65,
Bromborough Dock,GBR0000657,3.7,53.348,-2.9806,waste,,,,GBR,United Kingdom,Biffa,,UK Renewable Energy Planning Database,https://www.gov.uk/government/collections/renewable-energy-planning-data,,,,,,,,,,,,3.58,
Bromborough Dock Landfill Scheme,GBR0000550,3.0,53.3561,-2.9796,waste,,,,GBR,United Kingdom,Biffa,,UK Renewable Energy Planning Database,https://www.gov.uk/government/collections/renewable-energy-planning-data,,,,,,,,,,,,2.9,
Bromham House Farm,GBR2001098,1.5,51.3917,-2.0373,biomass,,,,GBR,United Kingdom,A J Butler & Sons Ltd,,UK Renewable Energy Planning Database,https://www.gov.uk/government/collections/renewable-energy-planning-data,,,,,,,,,,,,,
Bronwylfa Reservoir,GBR0001520,3.0,53.0318,-3.0594,solar,,,,GBR,United Kingdom,Wrexham County Borough Council,,UK Renewable Energy Planning Database,https://www.gov.uk/government/collections/renewable-energy-planning-data,,,,,,,,4.29,4.5,4.44,4.45,4.5,
Broockhurst Wood,GBR0000656,2.0,51.0892,-0.3522,waste,,,,GBR,United Kingdom,Biffa,,UK Renewable Energy Planning Database,https://www.gov.uk/government/collections/renewable-energy-planning-data,,,,,,,,,,,,1.93,
Brook Farm,GBR0002307,8.91036,51.8539,-1.1318,solar,,,,GBR,United Kingdom,Green Energy UK Direct Ltd,,UK Renewable Energy Planning Database,https://www.gov.uk/government/collections/renewable-energy-planning-data,,,,,,,,13.04,13.29,13.48,13.57,13.53,
Brook Hall Farm (resubmission),GBR0005926,4.7,51.2802,-2.214,solar,,,,GBR,United Kingdom,South West Solar Parks (Brook Hall Farm SPV),,UK Renewable Energy Planning Database,https://www.gov.uk/government/collections/renewable-energy-planning-data,,,,,,,,7.52,7.4,7.44,7.5,7.5,
Brookbarn,GBR0004933,3.63,50.8196,-0.5449,solar,,,,GBR,United Kingdom,Anesco,,UK Renewable Energy Planning Database,https://www.gov.uk/government/collections/renewable-energy-planning-data,,,,,,,,5.33,5.32,5.37,5.38,5.37,
Brookfield Farm AD Plant (Farm AD),GBR0000228,1.3,52.7752,-2.2312,biomass,,,,GBR,United Kingdom,Mr. I. Critchley,,UK Renewable Energy Planning Database,https://www.gov.uk/government/collections/renewable-energy-planning-data,,,,,,,,,,,,,
Brookhurst Wood (Waste AD),GBR0000312,4.5,51.1028,-0.3263,biomass,,,,GBR,United Kingdom,Biffa/West Sussex County Council,,UK Renewable Energy Planning Database,https://www.gov.uk/government/collections/renewable-energy-planning-data,,,,,,,,,,,,,
Brookhurst Wood Gas to Energy,GBR0000584,5.1,51.1023,-0.326,waste,,,,GBR,United Kingdom,Biffa,,UK Renewable Energy Planning Database,https://www.gov.uk/government/collections/renewable-energy-planning-data,,,,,,,,,,,,4.93,
Broomhill,GBR0002983,8.0,54.7502,-1.7607,wind,,,,GBR,United Kingdom,,,UK Renewable Energy Planning Database,https://www.gov.uk/government/collections/renewable-energy-planning-data,,,,,,,,,,,,20.16,
Brotherton (formerly Paul Matthew Hill wind turbines),GBR0004411,4.6,56.8147,-2.3718,wind,,,,GBR,United Kingdom,Renewable Energy Ventures Ltd,,UK Renewable Energy Planning Database,https://www.gov.uk/government/collections/renewable-energy-planning-data,,,,,,,,,,,,11.59,
Broughall Fields Farm,GBR2001009,2.4,52.9625,-2.6624,biomass,,,,GBR,United Kingdom,Grocontinental/ Whitchurch Biogas,,UK Renewable Energy Planning Database,https://www.gov.uk/government/collections/renewable-energy-planning-data,,,,,,,,,,,,,
Broxburn,GBR2001158,20.0,55.9192,-3.4554,storage,,,,GBR,United Kingdom,Renewable Energy Systems (RES),,UK Renewable Energy Planning Database,https://www.gov.uk/government/collections/renewable-energy-planning-data,,,,,,,,,,,,,
Broxted Solar Park,GBR0001592,31.59,52.1314,0.5172,solar,,,,GBR,United Kingdom,Lark Energy,,UK Renewable Energy Planning Database,https://www.gov.uk/government/collections/renewable-energy-planning-data,,,,,,,,45.44,46.13,45.25,45.38,46.32,
Bruach Caorainn Hydro Scheme,GBR2001080,1.1,56.1744,-4.5474,hydro,,,,GBR,United Kingdom,Broadland Renewable Construction,,UK Renewable Energy Planning Database,https://www.gov.uk/government/collections/renewable-energy-planning-data,,,,,,,,3.33,2.58,3.5,2.81,2.8,
Bruar Hydro Scheme,GBR0000478,1.9,56.8315,-3.9299,hydro,,,,GBR,United Kingdom,Bruar Hydro Ltd/ Gilkes,,UK Renewable Energy Planning Database,https://www.gov.uk/government/collections/renewable-energy-planning-data,,,,,,,,7.87,7.51,10.37,7.31,7.65,
Bryn Du,GBR0003556,16.4,52.4147,-3.707,wind,,,,GBR,United Kingdom,Renewable Development Company Ltd,,UK Renewable Energy Planning Database,https://www.gov.uk/government/collections/renewable-energy-planning-data,,,,,,,,,,,,41.34,
Bryn Pica AD / Tomorrow's Valley (Waste AD) - resubmission,GBR0000261,1.0,51.7383,-3.436,biomass,,,,GBR,United Kingdom,Ancala Bioenergy (formerly Biogen),,UK Renewable Energy Planning Database,https://www.gov.uk/government/collections/renewable-energy-planning-data,,,,,,,,,,,,,
Bryn Titli,GBR0003015,10.0,52.3672,-3.5656,wind,,,,GBR,United Kingdom,Innogy,,UK Renewable Energy Planning Database,https://www.gov.uk/government/collections/renewable-energy-planning-data,,,,,,,,,,,,25.2,
Bryn yr Odyn Solar Farm,GBR0002353,15.0,53.2333,-4.4047,solar,,,,GBR,United Kingdom,New Forest Energy Ltd,,UK Renewable Energy Planning Database,https://www.gov.uk/government/collections/renewable-energy-planning-data,,,,,,,,22.55,22.86,22.51,22.87,23.53,
Brynpica Landfill Site,GBR0000665,2.7,51.6579,-3.4832,waste,,,,GBR,United Kingdom,NOVERA,,UK Renewable Energy Planning Database,https://www.gov.uk/government/collections/renewable-energy-planning-data,,,,,,,,,,,,2.61,
Brynteg,GBR0002363,14.78664,51.7128,-4.1781,solar,,,,GBR,United Kingdom,Brynteg Solar,,UK Renewable Energy Planning Database,https://www.gov.uk/government/collections/renewable-energy-planning-data,,,,,,,,22.23,22.41,22.19,22.21,23.11,
Brynwhilach solar park,GBR0001975,5.0,51.6866,-3.9582,solar,,,,GBR,United Kingdom,Good Energy Generation,,UK Renewable Energy Planning Database,https://www.gov.uk/government/collections/renewable-energy-planning-data,,,,,,,,7.63,7.46,7.48,7.5,7.6,
Bu Farm,GBR0004008,2.7,59.0973,-2.6601,wind,,,,GBR,United Kingdom,Longearth Ltd/ Farm Energy,,UK Renewable Energy Planning Database,https://www.gov.uk/government/collections/renewable-energy-planning-data,,,,,,,,,,,,6.8,
Buckwell,WKS0064636,8.0,51.6638,-2.8365,solar,,,,GBR,United Kingdom,,,Wiki-Solar,https://www.wiki-solar.org,,,,,,,,12.09,11.86,12.04,12.07,12.07,
Bulls Head North,GBR0001976,5.51304,52.1542,-0.8107,solar,,,,GBR,United Kingdom,Anesco,,UK Renewable Energy Planning Database,https://www.gov.uk/government/collections/renewable-energy-planning-data,,,,,,,,8.23,8.2,8.34,8.36,8.36,
Bumpers 2,WKS0069236,4.1,51.7478,-0.8948,solar,,,,GBR,United Kingdom,,,Wiki-Solar,https://www.wiki-solar.org,,,,,,,,6.13,6.07,6.0,6.02,6.01,
Bumpers Farm Phase 1,GBR0002186,5.0,51.7483,-0.8963,solar,,,,GBR,United Kingdom,Solar Planning,,UK Renewable Energy Planning Database,https://www.gov.uk/government/collections/renewable-energy-planning-data,,,,,,,,7.64,7.58,7.48,7.51,7.6,
Bunn's Hill Solar Park,GBR0005453,5.0,52.7984,1.3979,solar,,,,GBR,United Kingdom,Solar Century/ Bluefield Solar,,UK Renewable Energy Planning Database,https://www.gov.uk/government/collections/renewable-energy-planning-data,,,,,,,,7.63,7.59,7.49,7.5,7.59,
Burbo Bank,GBR0002487,90.0,53.4882,-3.1849,wind,,,,GBR,United Kingdom,Orsted (formerly Dong Energy),,UK Renewable Energy Planning Database,https://www.gov.uk/government/collections/renewable-energy-planning-data,,,,,,,,,,,,226.88,
Burbo Bank Energy Storage,GBR2001170,2.0,53.4123,-3.0551,storage,,,,GBR,United Kingdom,Ørsted,,UK Renewable Energy Planning Database,https://www.gov.uk/government/collections/renewable-energy-planning-data,,,,,,,,,,,,,
Burbo Bank Extension (Burbo Bank 2),GBR0002539,258.0,53.48,-3.27,wind,,,,GBR,United Kingdom,Orsted (formerly Dong Energy),,UK Renewable Energy Planning Database,https://www.gov.uk/government/collections/renewable-energy-planning-data,,,,,,,,,,,,650.4,
Burgar Hill,GBR0003307,5.0,59.1176,-3.1492,wind,,,,GBR,United Kingdom,Orkney Sustainable Energy Ltd,,UK Renewable Energy Planning Database,https://www.gov.uk/government/collections/renewable-energy-planning-data,,,,,,,,,,,,12.6,
Burgar Hill (land Near)  Evie,GBR0003408,2.3,59.1176,-3.1492,wind,,,,GBR,United Kingdom,,,UK Renewable Energy Planning Database,https://www.gov.uk/government/collections/renewable-energy-planning-data,,,,,,,,,,,,5.79,
Burghfield,GBR1000441,45.0,51.4563,-0.9711,oil,,,,GBR,United Kingdom,Scottish and Southern: Thermal,,Department for Business Energy & Industrial Strategy,https://www.gov.uk/government/collections/digest-of-uk-energy-statistics-dukes,,,,,,,,,,,,24.42,
Burn of Whilk,GBR0004122,22.5,58.3568,-3.2039,wind,,,,GBR,United Kingdom,RWE npower,,UK Renewable Energy Planning Database,https://www.gov.uk/government/collections/renewable-energy-planning-data,,,,,,,,,,,,56.72,
Burnfoot Hill,GBR0002902,30.1,56.2091,-3.7728,wind,,,,GBR,United Kingdom,EDF Energies Nouvelles,,UK Renewable Energy Planning Database,https://www.gov.uk/government/collections/renewable-energy-planning-data,,,,,,,,,,,,75.88,
Burnfoot Hill Extension,GBR0004450,4.0,56.2154,-3.7689,wind,,,,GBR,United Kingdom,FAO Miss Sarah Dooley,,UK Renewable Energy Planning Database,https://www.gov.uk/government/collections/renewable-energy-planning-data,,,,,,,,,,,,10.08,
Burnhead Moss,GBR0004125,26.0,55.9121,-3.7748,wind,,,,GBR,United Kingdom,Wind Prospect Developments/ EDF,,UK Renewable Energy Planning Database,https://www.gov.uk/government/collections/renewable-energy-planning-data,,,,,,,,,,,,65.54,
Burnhills Landfill (L5),GBR0000705,3.8,54.956,-1.7579,waste,,,,GBR,United Kingdom,SITA UK,,UK Renewable Energy Planning Database,https://www.gov.uk/government/collections/renewable-energy-planning-data,,,,,,,,,,,,3.68,
Burnhills Landfill Scheme (L4),GBR0000702,1.5,54.956,-1.7579,waste,,,,GBR,United Kingdom,SITA UK,,UK Renewable Energy Planning Database,https://www.gov.uk/government/collections/renewable-energy-planning-data,,,,,,,,,,,,1.45,
Burnthouse Farm,GBR0003686,6.21,52.5373,-0.0337,wind,,,,GBR,United Kingdom,Fivestone Ltd,,UK Renewable Energy Planning Database,https://www.gov.uk/government/collections/renewable-energy-planning-data,,,,,,,,,,,,15.65,
Burntstalk Solar Park,GBR0001713,11.5,52.6732,0.6271,solar,,,,GBR,United Kingdom,Lightsource Renewable Energy,,UK Renewable Energy Planning Database,https://www.gov.uk/government/collections/renewable-energy-planning-data,,,,,,,,17.57,17.58,17.26,17.33,17.69,
Burntstump Landfill Scheme,GBR0000532,1.8,53.0441,-1.1289,waste,,,,GBR,United Kingdom,Waste Recycling Group,,UK Renewable Energy Planning Database,https://www.gov.uk/government/collections/renewable-energy-planning-data,,,,,,,,,,,,1.74,
Burradale Hill,GBR0003310,3.7,60.1648,-1.2361,wind,,,,GBR,United Kingdom,Shetland Aerogenerators,,UK Renewable Energy Planning Database,https://www.gov.uk/government/collections/renewable-energy-planning-data,,,,,,,,,,,,9.32,
Burrowton Farm,GBR0001978,5.0,50.7613,-3.4208,solar,,,,GBR,United Kingdom,British Solar Renewables,,UK Renewable Energy Planning Database,https://www.gov.uk/government/collections/renewable-energy-planning-data,,,,,,,,7.48,7.57,7.58,7.51,7.73,
Burthy,GBR0001718,13.08042,50.3609,-4.9461,solar,,,,GBR,United Kingdom,Elgin Energy EsCo,,UK Renewable Energy Planning Database,https://www.gov.uk/government/collections/renewable-energy-planning-data,,,,,,,,19.87,20.88,21.1,20.8,21.35,
Burton Farm,GBR0002157,4.4,52.2135,-1.7372,solar,,,,GBR,United Kingdom,Quercus Renewable Holding 2,,UK Renewable Energy Planning Database,https://www.gov.uk/government/collections/renewable-energy-planning-data,,,,,,,,6.3,6.44,6.58,6.6,6.54,
Burton Pedwardine,GBR0001755,8.99162,52.9722,-0.3555,solar,,,,GBR,United Kingdom,Lark Energy,,UK Renewable Energy Planning Database,https://www.gov.uk/government/collections/renewable-energy-planning-data,,,,,,,,13.07,13.41,13.69,13.73,13.87,
Burton Pidsea (Wadworth Hill) Wind Farm,GBR0003992,10.2,53.7492,-0.1135,wind,,,,GBR,United Kingdom,Aeolian Holderness Ltd,,UK Renewable Energy Planning Database,https://www.gov.uk/government/collections/renewable-energy-planning-data,,,,,,,,,,,,25.71,
Burton Wold Wind Farm - Northern Extension (resubmission),GBR0004210,14.4,52.3616,-0.6518,wind,,,,GBR,United Kingdom,John Laing Environmental,,UK Renewable Energy Planning Database,https://www.gov.uk/government/collections/renewable-energy-planning-data,,,,,,,,,,,,36.3,
Burton Wold Wind Farm South,GBR0005277,7.5,52.3536,-0.6565,wind,,,,GBR,United Kingdom,Infinergy/ Muirhall Energy,,UK Renewable Energy Planning Database,https://www.gov.uk/government/collections/renewable-energy-planning-data,,,,,,,,,,,,18.9,
Burton Wold Windfarm,GBR0004672,20.0,52.3608,-0.6431,wind,,,,GBR,United Kingdom,Gravis Capital Management,,UK Renewable Energy Planning Database,https://www.gov.uk/government/collections/renewable-energy-planning-data,,,,,,,,,,,,50.41,
Bury Green Farm Solar,GBR0006180,5.0,52.4514,-0.137,solar,,,,GBR,United Kingdom,Bury Green Farm Solar (Caledon Partners),,UK Renewable Energy Planning Database,https://www.gov.uk/government/collections/renewable-energy-planning-data,,,,,,,,7.57,7.47,7.57,7.6,7.61,
Bury Lane,GBR0002372,22.21587,52.0796,0.002,solar,,,,GBR,United Kingdom,Vortex (formerly Sun Edison),,UK Renewable Energy Planning Database,https://www.gov.uk/government/collections/renewable-energy-planning-data,,,,,,,,32.86,32.18,32.19,32.28,33.03,
Buslingthorpe Power Station (Leeds North),GBR0000026,2.0,53.8143,-1.5426,biomass,,,,GBR,United Kingdom,Living Power (REG Bio-Power),,UK Renewable Energy Planning Database,https://www.gov.uk/government/collections/renewable-energy-planning-data,,,,,,,,,,,,,
Butchersfield Landfill Site,GBR0000577,3.0,53.3977,-2.4842,waste,,,,GBR,United Kingdom,NORWEB Generation Limited,,UK Renewable Energy Planning Database,https://www.gov.uk/government/collections/renewable-energy-planning-data,,,,,,,,,,,,2.9,
Buttermilk Farm,GBR0000238,1.1,51.9469,-0.0487,biomass,,,,GBR,United Kingdom,Hallwick Energy,,UK Renewable Energy Planning Database,https://www.gov.uk/government/collections/renewable-energy-planning-data,,,,,,,,,,,,,
Butterwick Moor Circuit 1,GBR2000200,10.25,54.6652,-1.375,wind,,,,GBR,United Kingdom,,,,,,,,,,,,,,,,25.83,
Butterwick Moor Circuit 2,GBR2000201,10.25,54.6652,-1.375,wind,,,,GBR,United Kingdom,,,,,,,,,,,,,,,,25.83,
Bygrave Lodge Farm Anaerobic Digestion Facility (Farm AD),GBR0000271,2.3,52.0025,-0.1428,biomass,,,,GBR,United Kingdom,Ancala Bioenergy (formerly Biogen),,UK Renewable Energy Planning Database,https://www.gov.uk/government/collections/renewable-energy-planning-data,,,,,,,,,,,,,
Bypass Nurseries Solar Farm,GBR0001890,3.3,52.1024,-1.9201,solar,,,,GBR,United Kingdom,Sun Spirit,,UK Renewable Energy Planning Database,https://www.gov.uk/government/collections/renewable-energy-planning-data,,,,,,,,4.73,4.85,4.94,4.94,4.88,
Bystock Solar Farm,GBR0002112,4.1,50.6473,-3.3825,solar,,,,GBR,United Kingdom,Lightsource Renewable Energy,,UK Renewable Energy Planning Database,https://www.gov.uk/government/collections/renewable-energy-planning-data,,,,,,,,6.07,5.96,6.02,6.04,6.04,
CRAYSMARSH SOLAR FARM,GBR0001619,1.8,51.3626,-2.0947,solar,,,,GBR,United Kingdom,Mr Nick Boyle,,UK Renewable Energy Planning Database,https://www.gov.uk/government/collections/renewable-energy-planning-data,,,,,,,,2.5,2.48,2.47,2.48,2.48,
CRINACOTT SOLAR FARM (Pyworthy),GBR0001094,6.7,50.7904,-4.4014,solar,,,,GBR,United Kingdom,Sunsave 4 Ltd/ Vogt Solar,,UK Renewable Energy Planning Database,https://www.gov.uk/government/collections/renewable-energy-planning-data,,,,,,,,9.92,10.09,10.04,10.06,10.3,
Caddington Solar Farm (Phase 1),GBR0001942,3.0,51.86,-0.4633,solar,,,,GBR,United Kingdom,Raybridge Corporation,,UK Renewable Energy Planning Database,https://www.gov.uk/government/collections/renewable-energy-planning-data,,,,,,,,4.44,4.45,4.46,4.49,4.46,
Caddington Solar Farm (Phase 2),GBR0004706,5.0,51.8564,-0.4686,solar,,,,GBR,United Kingdom,Emsrayne Limited,,UK Renewable Energy Planning Database,https://www.gov.uk/government/collections/renewable-energy-planning-data,,,,,,,,7.53,7.48,7.57,7.62,7.61,
Cadland 2,GBR0001669,3.01602,50.8095,-1.3599,solar,,,,GBR,United Kingdom,Manor of Cadland,,UK Renewable Energy Planning Database,https://www.gov.uk/government/collections/renewable-energy-planning-data,,,,,,,,4.48,4.41,4.55,4.54,4.53,
Caegarw,WKS0069640,3.9,51.5377,-3.7163,solar,,,,GBR,United Kingdom,,,Wiki-Solar,https://www.wiki-solar.org,,,,,,,,5.74,5.79,5.7,5.73,5.78,
Caeremlyn Solar Farm,GBR0001719,18.0,51.8279,-4.6334,solar,,,,GBR,United Kingdom,Munich RE,,UK Renewable Energy Planning Database,https://www.gov.uk/government/collections/renewable-energy-planning-data,,,,,,,,27.24,27.53,27.23,27.22,28.27,
Caergarw Farm,GBR0006035,3.8,51.5401,-3.6997,solar,,,,GBR,United Kingdom,Suncredit UK (Sunventures 7),,UK Renewable Energy Planning Database,https://www.gov.uk/government/collections/renewable-energy-planning-data,,,,,,,,5.61,5.65,5.56,5.58,5.64,
Cairnborrow - resubmission,GBR0004350,10.0,57.4639,-2.8992,wind,,,,GBR,United Kingdom,Engie (GDF Suez),,UK Renewable Energy Planning Database,https://www.gov.uk/government/collections/renewable-energy-planning-data,,,,,,,,,,,,25.2,
Cairnhill Farm solar park,GBR0001358,2.4,57.5603,-2.3723,solar,,,,GBR,United Kingdom,Green Cat Renewables,,UK Renewable Energy Planning Database,https://www.gov.uk/government/collections/renewable-energy-planning-data,,,,,,,,3.41,3.44,3.43,3.45,3.44,
Cairnmore Farm,GBR0002724,2.6,57.3153,-2.8137,wind,,,,GBR,United Kingdom,,,UK Renewable Energy Planning Database,https://www.gov.uk/government/collections/renewable-energy-planning-data,,,,,,,,,,,,6.55,
Cairnmore Solar Park,GBR0004780,3.8,57.3086,-2.8272,solar,,,,GBR,United Kingdom,GPV Rhynie,,UK Renewable Energy Planning Database,https://www.gov.uk/government/collections/renewable-energy-planning-data,,,,,,,,5.47,5.31,5.47,5.39,5.2,
